{
  "finance": [
    {
      "id": "bank_1",
      "name": "HDFC Bank",
      "brand": "HDFC",
      "amenity": "bank",
      "lat": 26.9235,
      "lon": 75.8269,
      "address": "Shop No 85 & 86, Pandya Bhawan, Johari Bazaar, Jaipur",
      "opening_hours": "10:00-16:00"
    },
    {
      "id": "bank_2",
      "name": "AU Small Finance Bank",
      "brand": "AU Bank",
      "amenity": "bank",
      "lat": 26.9232,
      "lon": 75.827,
      "address": "Barathi Bhawan, MSB Ka Rasta, Johari Bazaar, Jaipur",
      "opening_hours": "10:00-17:00"
    },
    {
      "id": "atm_1",
      "name": "ICICI Bank ATM",
      "brand": "ICICI",
      "amenity": "atm",
      "lat": 26.918,
      "lon": 75.824,
      "address": "Bapu Bazaar, Jaipur",
      "opening_hours": "24/7"
    },
    {
      "id": "atm_2",
      "name": "SBI ATM",
      "brand": "SBI",
      "amenity": "atm",
      "lat": 26.915,
      "lon": 75.8185,
      "address": "Malviya Nagar, Jaipur",
      "opening_hours": "24/7"
    },
    {
      "name": "Yudd",
      "id": "1775290828364"
    }
  ],
  "groceries": [
    {
      "store_id": "g1",
      "name": "Reliance Smart",
      "type": "Supermarket",
      "area": "Vaishali Nagar",
      "lat": 26.9115,
      "lng": 75.7442,
      "opening_hours": "08:00-22:00",
      "delivery": true,
      "address": "Amrapali Circle, Jaipur"
    },
    {
      "store_id": "g2",
      "name": "D-Mart",
      "type": "Discount Store",
      "area": "Jagatpura",
      "lat": 26.8392,
      "lng": 75.8635,
      "opening_hours": "09:00-22:00",
      "delivery": false,
      "address": "Jagatpura Road, Jaipur"
    },
    {
      "store_id": "g3",
      "name": "Sodhani Sweets & Grocery",
      "type": "Local Store",
      "area": "Tonk Road",
      "lat": 26.8505,
      "lng": 75.805,
      "opening_hours": "07:00-23:00",
      "delivery": true,
      "address": "Tonk Road, Jaipur"
    },
    {
      "store_id": "g4",
      "name": "Easyday Club",
      "type": "Supermarket",
      "area": "Malviya Nagar",
      "lat": 26.846,
      "lng": 75.813,
      "opening_hours": "09:00-22:30",
      "delivery": true,
      "address": "Malviya Nagar, Jaipur"
    }
  ],
  "local-markets": [
    {
      "market_id": "m1",
      "name": "Johari Bazaar",
      "type": "Jewelry Market",
      "area": "Old City",
      "lat": 26.9239,
      "lng": 75.8267,
      "opening_hours": "10:00-22:00",
      "address": "Johari Bazaar Rd, Jaipur"
    },
    {
      "market_id": "m2",
      "name": "Bapu Bazaar",
      "type": "Textiles & Handicrafts",
      "area": "Pink City",
      "lat": 26.9185,
      "lng": 75.8237,
      "opening_hours": "11:00-21:00",
      "address": "Bapu Bazaar Rd, Jaipur"
    },
    {
      "market_id": "m3",
      "name": "Tripolia Bazaar",
      "type": "Lac Bangles & Brassware",
      "area": "Old City",
      "lat": 26.925,
      "lng": 75.8255,
      "opening_hours": "10:30-20:00",
      "address": "Tripolia Bazaar, Jaipur"
    },
    {
      "market_id": "m4",
      "name": "Chandpole Bazaar",
      "type": "Handicrafts & Marble",
      "area": "Chandpole",
      "lat": 26.9258,
      "lng": 75.812,
      "opening_hours": "10:00-20:00",
      "address": "Chandpole Gate, Jaipur"
    }
  ],
  "house-services": [
    {
      "id": "hs1",
      "name": "Urban Company Jaipur",
      "type": "Cleaning & Repairs",
      "area": "Jaipur",
      "lat": 26.9124,
      "lng": 75.7873,
      "opening_hours": "08:00-20:00",
      "phone": "09000000000"
    },
    {
      "id": "hs2",
      "name": "Jaipur Electric Services",
      "type": "Electrician",
      "area": "Malviya Nagar",
      "lat": 26.85,
      "lng": 75.81,
      "opening_hours": "09:00-19:00",
      "phone": "9123456780"
    },
    {
      "id": "hs3",
      "name": "QuickFix Plumbers",
      "type": "Plumbing",
      "area": "Vaishali Nagar",
      "lat": 26.9,
      "lng": 75.75,
      "opening_hours": "24/7",
      "phone": "9988776655"
    },
    {
      "id": "hs4",
      "name": "Home Cleaning Experts",
      "type": "Deep Cleaning",
      "area": "Mansarovar",
      "lat": 26.8502,
      "lng": 75.768,
      "opening_hours": "08:00-18:00",
      "phone": "9876543211"
    }
  ]
}