{
    "hospitals":
    [
  {
    "@id":2692620884,
    "name":"Soni Manipal Hospital",
    "amenity":"hospital",
    "healthcare":"hospital",
    "addr:street":null,
    "addr:city":null,
    "addr:postcode":null,
    "contact:phone":null,
    "contact:website":null,
    "@lat":26.968861,
    "@lon":75.7734203
  },
  {
    "@id":2694200840,
    "name":"ALCS: Cosmetic Surgery, Hair Transplant & Laser Clinic in Jaipur",
    "amenity":"hospital",
    "healthcare":"hospital",
    "addr:street":"1 Shivaji Nagar, Civil Lines",
    "addr:city":"Jaipur",
    "addr:postcode":302006.0,
    "contact:phone":null,
    "contact:website":null,
    "@lat":26.9047068,
    "@lon":75.7805686
  },
  {
    "@id":2725302272,
    "name":"Prakritik Chikitsalaya",
    "amenity":"hospital",
    "healthcare":"hospital",
    "addr:street":null,
    "addr:city":null,
    "addr:postcode":null,
    "contact:phone":null,
    "contact:website":null,
    "@lat":26.8894783,
    "@lon":75.8123403
  },
  {
    "@id":2725536808,
    "name":"Santokba Durlabhji Memorial Hospital",
    "amenity":"hospital",
    "healthcare":"hospital",
    "addr:street":null,
    "addr:city":null,
    "addr:postcode":null,
    "contact:phone":null,
    "contact:website":null,
    "@lat":26.8935138,
    "@lon":75.813656
  },
  {
    "@id":2777043234,
    "name":"ESIC Hospital",
    "amenity":"hospital",
    "healthcare":"hospital",
    "addr:street":null,
    "addr:city":null,
    "addr:postcode":null,
    "contact:phone":null,
    "contact:website":null,
    "@lat":26.9072246,
    "@lon":75.7771383
  },
  {
    "@id":3077970035,
    "name":"Saket Hospital",
    "amenity":"hospital",
    "healthcare":null,
    "addr:street":null,
    "addr:city":"Jaipur",
    "addr:postcode":302020.0,
    "contact:phone":null,
    "contact:website":null,
    "@lat":26.8490145,
    "@lon":75.7653843
  },
  {
    "@id":3078037746,
    "name":"Curewell Hospital",
    "amenity":"hospital",
    "healthcare":null,
    "addr:street":null,
    "addr:city":"Jaipur",
    "addr:postcode":302020.0,
    "contact:phone":null,
    "contact:website":null,
    "@lat":26.8399146,
    "@lon":75.7696685
  },
  {
    "@id":3476216925,
    "name":"Goverment Rukmani Devi Japuria Hospital",
    "amenity":"hospital",
    "healthcare":null,
    "addr:street":"Basant Vihar, Bajaj Nagar",
    "addr:city":"Jaipur",
    "addr:postcode":302005.0,
    "contact:phone":null,
    "contact:website":null,
    "@lat":26.8569226,
    "@lon":75.8009531
  },
  {
    "@id":3560470590,
    "name":"MNIT college Dispensary",
    "amenity":"hospital",
    "healthcare":null,
    "addr:street":null,
    "addr:city":null,
    "addr:postcode":null,
    "contact:phone":null,
    "contact:website":null,
    "@lat":26.8621894,
    "@lon":75.812195
  },
  {
    "@id":4226415489,
    "name":"Apex Hospitals Pvt Ltd",
    "amenity":"hospital",
    "healthcare":null,
    "addr:street":null,
    "addr:city":null,
    "addr:postcode":302017.0,
    "contact:phone":null,
    "contact:website":null,
    "@lat":26.8547506,
    "@lon":75.8252712
  },
  {
    "@id":4226415589,
    "name":"Krishna Ram Charitable Hospital",
    "amenity":"hospital",
    "healthcare":null,
    "addr:street":null,
    "addr:city":null,
    "addr:postcode":302017.0,
    "contact:phone":null,
    "contact:website":null,
    "@lat":26.8228017,
    "@lon":75.8482272
  },
  {
    "@id":4427334090,
    "name":null,
    "amenity":"hospital",
    "healthcare":"hospital",
    "addr:street":null,
    "addr:city":null,
    "addr:postcode":null,
    "contact:phone":null,
    "contact:website":null,
    "@lat":26.9604096,
    "@lon":75.7605386
  },
  {
    "@id":4466633244,
    "name":"SDMH",
    "amenity":"hospital",
    "healthcare":"hospital",
    "addr:street":null,
    "addr:city":null,
    "addr:postcode":null,
    "contact:phone":null,
    "contact:website":null,
    "@lat":26.893253,
    "@lon":75.812105
  },
  {
    "@id":4466634118,
    "name":"soni hospital",
    "amenity":"hospital",
    "healthcare":"hospital",
    "addr:street":null,
    "addr:city":null,
    "addr:postcode":null,
    "contact:phone":null,
    "contact:website":null,
    "@lat":26.8951673,
    "@lon":75.8149318
  },
  {
    "@id":4621858291,
    "name":"jaipur dental hospital",
    "amenity":"hospital",
    "healthcare":"hospital",
    "addr:street":"9, Gopinath Marg, New Colony, Near Panch Batti",
    "addr:city":null,
    "addr:postcode":302001.0,
    "contact:phone":null,
    "contact:website":null,
    "@lat":26.9185644,
    "@lon":75.8077715
  },
  {
    "@id":4744477348,
    "name":"Sparsh Hospital",
    "amenity":"hospital",
    "healthcare":null,
    "addr:street":null,
    "addr:city":null,
    "addr:postcode":null,
    "contact:phone":null,
    "contact:website":null,
    "@lat":26.8225833,
    "@lon":75.7798425
  },
  {
    "@id":4793756921,
    "name":null,
    "amenity":"hospital",
    "healthcare":"hospital",
    "addr:street":null,
    "addr:city":null,
    "addr:postcode":null,
    "contact:phone":null,
    "contact:website":null,
    "@lat":26.9063113,
    "@lon":75.8150111
  },
  {
    "@id":4793756922,
    "name":"Sawai Man Singh Hospital, Jaipur",
    "amenity":"hospital",
    "healthcare":"hospital",
    "addr:street":null,
    "addr:city":null,
    "addr:postcode":302004.0,
    "contact:phone":"+91-0141 256 0291",
    "contact:website":null,
    "@lat":26.9060159,
    "@lon":75.8161049
  },
  {
    "@id":4798048721,
    "name":"SMS Trauma Center",
    "amenity":"hospital",
    "healthcare":"hospital",
    "addr:street":null,
    "addr:city":null,
    "addr:postcode":null,
    "contact:phone":null,
    "contact:website":null,
    "@lat":26.90734,
    "@lon":75.8146282
  },
  {
    "@id":4880275221,
    "name":null,
    "amenity":"hospital",
    "healthcare":"hospital",
    "addr:street":"kisan marg",
    "addr:city":null,
    "addr:postcode":302015.0,
    "contact:phone":null,
    "contact:website":null,
    "@lat":26.875564,
    "@lon":75.792605
  },
  {
    "@id":5533496172,
    "name":"Face kraft - Centre for advanced dentistry",
    "amenity":"hospital",
    "healthcare":"hospital",
    "addr:street":"Calgary Road",
    "addr:city":"Jaipur",
    "addr:postcode":302017.0,
    "contact:phone":null,
    "contact:website":null,
    "@lat":26.8589685,
    "@lon":75.8086772
  },
  {
    "@id":5582501185,
    "name":"Dr. Ramani's Dental Practice",
    "amenity":"hospital",
    "healthcare":"dentist",
    "addr:street":"Rajendra Marg",
    "addr:city":"Jaipur",
    "addr:postcode":302015.0,
    "contact:phone":null,
    "contact:website":null,
    "@lat":26.8918721,
    "@lon":75.8101422
  },
  {
    "@id":5756676422,
    "name":"Sanjavani hospital",
    "amenity":"hospital",
    "healthcare":"hospital",
    "addr:street":null,
    "addr:city":null,
    "addr:postcode":null,
    "contact:phone":null,
    "contact:website":null,
    "@lat":26.931796,
    "@lon":75.7918159
  },
  {
    "@id":6341259416,
    "name":"Eternal Heart Care Center",
    "amenity":"hospital",
    "healthcare":"hospital",
    "addr:street":null,
    "addr:city":null,
    "addr:postcode":null,
    "contact:phone":null,
    "contact:website":null,
    "@lat":26.8401687,
    "@lon":75.8058755
  },
  {
    "@id":6966458470,
    "name":"JNU Hospital and Medical College",
    "amenity":"hospital",
    "healthcare":"hospital",
    "addr:street":"Kho Nagariya",
    "addr:city":"Jaipur",
    "addr:postcode":302017.0,
    "contact:phone":null,
    "contact:website":null,
    "@lat":26.8553877,
    "@lon":75.8769124
  },
  {
    "@id":6968230705,
    "name":"Asopa Hospital",
    "amenity":"hospital",
    "healthcare":"hospital",
    "addr:street":null,
    "addr:city":null,
    "addr:postcode":302024.0,
    "contact:phone":null,
    "contact:website":null,
    "@lat":26.8915644,
    "@lon":75.7414192
  },
  {
    "@id":6978725493,
    "name":"Shalby Multi-Specialty Hospital, Jaipur",
    "amenity":"hospital",
    "healthcare":"hospital",
    "addr:street":null,
    "addr:city":null,
    "addr:postcode":null,
    "contact:phone":null,
    "contact:website":null,
    "@lat":26.9034734,
    "@lon":75.7292121
  },
  {
    "@id":7024812754,
    "name":"Sharad Hospital",
    "amenity":"hospital",
    "healthcare":null,
    "addr:street":null,
    "addr:city":null,
    "addr:postcode":302019.0,
    "contact:phone":null,
    "contact:website":null,
    "@lat":26.8944983,
    "@lon":75.7640308
  },
  {
    "@id":7024823966,
    "name":"R.P. Memorial Hospital",
    "amenity":"hospital",
    "healthcare":"hospital",
    "addr:street":null,
    "addr:city":null,
    "addr:postcode":302001.0,
    "contact:phone":null,
    "contact:website":null,
    "@lat":26.8880586,
    "@lon":75.8305617
  },
  {
    "@id":7024847602,
    "name":"Sharda General Hospital",
    "amenity":"hospital",
    "healthcare":null,
    "addr:street":null,
    "addr:city":null,
    "addr:postcode":302020.0,
    "contact:phone":null,
    "contact:website":null,
    "@lat":26.8453338,
    "@lon":75.7706899
  },
  {
    "@id":7024858970,
    "name":"R.A.G. Hospital",
    "amenity":"hospital",
    "healthcare":"hospital",
    "addr:street":null,
    "addr:city":null,
    "addr:postcode":302020.0,
    "contact:phone":null,
    "contact:website":null,
    "@lat":26.8675199,
    "@lon":75.7702032
  },
  {
    "@id":7024889676,
    "name":"Sharma Hospital, Jaipur",
    "amenity":"hospital",
    "healthcare":"hospital",
    "addr:street":null,
    "addr:city":null,
    "addr:postcode":302004.0,
    "contact:phone":null,
    "contact:website":null,
    "@lat":26.9068181,
    "@lon":75.8245965
  },
  {
    "@id":7024897100,
    "name":"R.G.S Eye Centre and Retina Foundation",
    "amenity":"hospital",
    "healthcare":null,
    "addr:street":null,
    "addr:city":null,
    "addr:postcode":302015.0,
    "contact:phone":null,
    "contact:website":null,
    "@lat":26.8525438,
    "@lon":75.8017749
  },
  {
    "@id":7025015210,
    "name":"Bani Park Hospital",
    "amenity":"hospital",
    "healthcare":"hospital",
    "addr:street":null,
    "addr:city":null,
    "addr:postcode":302016.0,
    "contact:phone":null,
    "contact:website":null,
    "@lat":26.9245242,
    "@lon":75.788056
  },
  {
    "@id":7025038083,
    "name":"K.M.S.Hospital",
    "amenity":"hospital",
    "healthcare":"hospital",
    "addr:street":null,
    "addr:city":null,
    "addr:postcode":302004.0,
    "contact:phone":null,
    "contact:website":null,
    "@lat":26.8953299,
    "@lon":75.8208033
  },
  {
    "@id":7025072866,
    "name":"Archana Hospital",
    "amenity":"hospital",
    "healthcare":null,
    "addr:street":null,
    "addr:city":null,
    "addr:postcode":302015.0,
    "contact:phone":null,
    "contact:website":null,
    "@lat":26.8189131,
    "@lon":75.7986467
  },
  {
    "@id":7025156650,
    "name":"Anita Maternity Home",
    "amenity":"hospital",
    "healthcare":null,
    "addr:street":null,
    "addr:city":null,
    "addr:postcode":302017.0,
    "contact:phone":null,
    "contact:website":null,
    "@lat":26.8479288,
    "@lon":75.8053221
  },
  {
    "@id":7025157462,
    "name":"Anshu Hospital",
    "amenity":"hospital",
    "healthcare":"hospital",
    "addr:street":null,
    "addr:city":null,
    "addr:postcode":302015.0,
    "contact:phone":null,
    "contact:website":null,
    "@lat":26.8873756,
    "@lon":75.8079158
  },
  {
    "@id":7025196557,
    "name":"Anil Hospital",
    "amenity":"hospital",
    "healthcare":"hospital",
    "addr:street":null,
    "addr:city":null,
    "addr:postcode":302004.0,
    "contact:phone":null,
    "contact:website":null,
    "@lat":26.9075955,
    "@lon":75.8238333
  },
  {
    "@id":7025199278,
    "name":"Anita Children's Hospital",
    "amenity":"hospital",
    "healthcare":null,
    "addr:street":null,
    "addr:city":null,
    "addr:postcode":302006.0,
    "contact:phone":null,
    "contact:website":null,
    "@lat":26.8962948,
    "@lon":75.7448383
  },
  {
    "@id":7025210570,
    "name":"Anand Maternity Hospital",
    "amenity":"hospital",
    "healthcare":"hospital",
    "addr:street":null,
    "addr:city":null,
    "addr:postcode":302012.0,
    "contact:phone":null,
    "contact:website":null,
    "@lat":26.944793,
    "@lon":75.7478651
  },
  {
    "@id":7025222996,
    "name":"Anand Eye Hospital",
    "amenity":"hospital",
    "healthcare":null,
    "addr:street":null,
    "addr:city":null,
    "addr:postcode":302005.0,
    "contact:phone":null,
    "contact:website":null,
    "@lat":26.9081588,
    "@lon":75.7963179
  },
  {
    "@id":7025281080,
    "name":"Amar Medical and Research Centre",
    "amenity":"hospital",
    "healthcare":"hospital",
    "addr:street":null,
    "addr:city":null,
    "addr:postcode":302020.0,
    "contact:phone":null,
    "contact:website":null,
    "@lat":26.8681845,
    "@lon":75.7577665
  },
  {
    "@id":7025285294,
    "name":"Amodh Hospital",
    "amenity":"hospital",
    "healthcare":"hospital",
    "addr:street":null,
    "addr:city":null,
    "addr:postcode":302004.0,
    "contact:phone":null,
    "contact:website":null,
    "@lat":26.8977635,
    "@lon":75.8322018
  },
  {
    "@id":7025288970,
    "name":"Amarnath Allergy And General Hospital",
    "amenity":"hospital",
    "healthcare":"hospital",
    "addr:street":null,
    "addr:city":null,
    "addr:postcode":302019.0,
    "contact:phone":null,
    "contact:website":null,
    "@lat":26.8620783,
    "@lon":75.7926258
  },
  {
    "@id":7025306774,
    "name":"Amar Jain Hospital",
    "amenity":"hospital",
    "healthcare":"hospital",
    "addr:street":null,
    "addr:city":null,
    "addr:postcode":302003.0,
    "contact:phone":null,
    "contact:website":null,
    "@lat":26.9204054,
    "@lon":75.821414
  },
  {
    "@id":7025429713,
    "name":"Satellite Hospital, Sethi Colony , JAIPUR",
    "amenity":"hospital",
    "healthcare":"hospital",
    "addr:street":null,
    "addr:city":null,
    "addr:postcode":302004.0,
    "contact:phone":null,
    "contact:website":null,
    "@lat":26.9021049,
    "@lon":75.8416218
  },
  {
    "@id":7027488070,
    "name":"Raj Hospital, Jaipur",
    "amenity":"hospital",
    "healthcare":null,
    "addr:street":null,
    "addr:city":null,
    "addr:postcode":303007.0,
    "contact:phone":null,
    "contact:website":null,
    "@lat":26.8155385,
    "@lon":75.7741803
  },
  {
    "@id":7027516600,
    "name":"Dr Roy Chowdary's Institute Of Urology",
    "amenity":"hospital",
    "healthcare":"hospital",
    "addr:street":null,
    "addr:city":null,
    "addr:postcode":302003.0,
    "contact:phone":null,
    "contact:website":null,
    "@lat":26.901251,
    "@lon":75.7969281
  },
  {
    "@id":7027544538,
    "name":"Radha Nursing Home, Jotwara",
    "amenity":"hospital",
    "healthcare":null,
    "addr:street":null,
    "addr:city":null,
    "addr:postcode":302021.0,
    "contact:phone":null,
    "contact:website":null,
    "@lat":26.9460902,
    "@lon":75.7357603
  },
  {
    "@id":7027565979,
    "name":"R.K.Yadav Memorial Hospital",
    "amenity":"hospital",
    "healthcare":"hospital",
    "addr:street":null,
    "addr:city":null,
    "addr:postcode":302021.0,
    "contact:phone":null,
    "contact:website":null,
    "@lat":26.9215199,
    "@lon":75.7426026
  },
  {
    "@id":7027616575,
    "name":"J P Eye Hospital, Jaipur",
    "amenity":"hospital",
    "healthcare":"hospital",
    "addr:street":null,
    "addr:city":null,
    "addr:postcode":302015.0,
    "contact:phone":null,
    "contact:website":null,
    "@lat":26.8815962,
    "@lon":75.7987918
  },
  {
    "@id":7027675114,
    "name":"Shubham Hospital and Maternity Centre",
    "amenity":"hospital",
    "healthcare":"hospital",
    "addr:street":null,
    "addr:city":null,
    "addr:postcode":302012.0,
    "contact:phone":null,
    "contact:website":null,
    "@lat":26.9421067,
    "@lon":75.7639946
  },
  {
    "@id":7027685279,
    "name":"J. K. Loan Hospital",
    "amenity":"hospital",
    "healthcare":"hospital",
    "addr:street":null,
    "addr:city":null,
    "addr:postcode":302004.0,
    "contact:phone":null,
    "contact:website":null,
    "@lat":26.9014055,
    "@lon":75.8177174
  },
  {
    "@id":7027690433,
    "name":"International Fertility and Health Care Centre",
    "amenity":"hospital",
    "healthcare":"hospital",
    "addr:street":null,
    "addr:city":null,
    "addr:postcode":303103.0,
    "contact:phone":null,
    "contact:website":null,
    "@lat":26.8973018,
    "@lon":75.8109118
  },
  {
    "@id":7027700037,
    "name":"J. N. Mishra Memorial Hospital",
    "amenity":"hospital",
    "healthcare":"hospital",
    "addr:street":null,
    "addr:city":null,
    "addr:postcode":302021.0,
    "contact:phone":null,
    "contact:website":null,
    "@lat":26.9194554,
    "@lon":75.743105
  },
  {
    "@id":7027721133,
    "name":"Indowestern Brain and Spine Hospital",
    "amenity":"hospital",
    "healthcare":"hospital",
    "addr:street":null,
    "addr:city":null,
    "addr:postcode":302020.0,
    "contact:phone":null,
    "contact:website":null,
    "@lat":26.8917103,
    "@lon":75.8002755
  },
  {
    "@id":7027743300,
    "name":"Holy Family Hospital, Jaipur",
    "amenity":"hospital",
    "healthcare":"hospital",
    "addr:street":null,
    "addr:city":null,
    "addr:postcode":302004.0,
    "contact:phone":null,
    "contact:website":null,
    "@lat":26.8935881,
    "@lon":75.8243215
  },
  {
    "@id":7027752926,
    "name":"Hi Tech Hospital, Jaipur",
    "amenity":"hospital",
    "healthcare":null,
    "addr:street":null,
    "addr:city":null,
    "addr:postcode":302020.0,
    "contact:phone":null,
    "contact:website":null,
    "@lat":26.8402031,
    "@lon":75.7717831
  },
  {
    "@id":7027765939,
    "name":"Heart and General Hospital",
    "amenity":"hospital",
    "healthcare":null,
    "addr:street":null,
    "addr:city":null,
    "addr:postcode":302001.0,
    "contact:phone":null,
    "contact:website":null,
    "@lat":26.9086623,
    "@lon":75.8108716
  },
  {
    "@id":7027768952,
    "name":"Vardhman Hospital, Jaipur",
    "amenity":"hospital",
    "healthcare":null,
    "addr:street":null,
    "addr:city":null,
    "addr:postcode":302019.0,
    "contact:phone":null,
    "contact:website":null,
    "@lat":26.8940283,
    "@lon":75.7694166
  },
  {
    "@id":7027783622,
    "name":"Health Hospital",
    "amenity":"hospital",
    "healthcare":null,
    "addr:street":null,
    "addr:city":null,
    "addr:postcode":302015.0,
    "contact:phone":null,
    "contact:website":null,
    "@lat":26.8784928,
    "@lon":75.7792993
  },
  {
    "@id":7027786380,
    "name":"Uniara Hospital",
    "amenity":"hospital",
    "healthcare":"hospital",
    "addr:street":null,
    "addr:city":null,
    "addr:postcode":302004.0,
    "contact:phone":null,
    "contact:website":null,
    "@lat":26.8979427,
    "@lon":75.8178108
  },
  {
    "@id":7027800130,
    "name":"Tyagi Eye Hospital",
    "amenity":"hospital",
    "healthcare":null,
    "addr:street":null,
    "addr:city":null,
    "addr:postcode":302021.0,
    "contact:phone":null,
    "contact:website":null,
    "@lat":26.9003251,
    "@lon":75.7516079
  },
  {
    "@id":7028034200,
    "name":"Ashok Hospital and Research Center",
    "amenity":"hospital",
    "healthcare":null,
    "addr:street":null,
    "addr:city":null,
    "addr:postcode":302005.0,
    "contact:phone":null,
    "contact:website":null,
    "@lat":26.8724587,
    "@lon":75.6999376
  },
  {
    "@id":7028059883,
    "name":"Kamdar Children Hospital",
    "amenity":"hospital",
    "healthcare":"hospital",
    "addr:street":null,
    "addr:city":null,
    "addr:postcode":302006.0,
    "contact:phone":null,
    "contact:website":null,
    "@lat":26.9055068,
    "@lon":75.7780299
  },
  {
    "@id":7030319488,
    "name":"Getwell Poly Clinic and Hospital",
    "amenity":"clinic",
    "healthcare":"hospital",
    "addr:street":null,
    "addr:city":null,
    "addr:postcode":302017.0,
    "contact:phone":null,
    "contact:website":null,
    "@lat":26.902255,
    "@lon":75.8167071
  },
  {
    "@id":7030319503,
    "name":"Advanced Heart Care Center",
    "amenity":"hospital",
    "healthcare":"hospital",
    "addr:street":null,
    "addr:city":null,
    "addr:postcode":null,
    "contact:phone":null,
    "contact:website":null,
    "@lat":26.8676258,
    "@lon":75.8034563
  },
  {
    "@id":7030343843,
    "name":"Bharadwaj Hospital",
    "amenity":"hospital",
    "healthcare":null,
    "addr:street":null,
    "addr:city":null,
    "addr:postcode":303007.0,
    "contact:phone":null,
    "contact:website":null,
    "@lat":26.8216987,
    "@lon":75.5439261
  },
  {
    "@id":7030351333,
    "name":"Bhandari Hospital and Research Centre",
    "amenity":"hospital",
    "healthcare":"hospital",
    "addr:street":null,
    "addr:city":null,
    "addr:postcode":302018.0,
    "contact:phone":null,
    "contact:website":null,
    "@lat":26.8636395,
    "@lon":75.7937336
  },
  {
    "@id":7030410093,
    "name":"Bhiwani Eye Care Centre",
    "amenity":"hospital",
    "healthcare":"hospital",
    "addr:street":null,
    "addr:city":null,
    "addr:postcode":302004.0,
    "contact:phone":null,
    "contact:website":null,
    "@lat":26.9025702,
    "@lon":75.8257002
  },
  {
    "@id":7030524543,
    "name":"C.B.L. Memorial Holy Family Hospital",
    "amenity":"hospital",
    "healthcare":"hospital",
    "addr:street":null,
    "addr:city":null,
    "addr:postcode":302012.0,
    "contact:phone":null,
    "contact:website":null,
    "@lat":26.9388918,
    "@lon":75.7810803
  },
  {
    "@id":7030551132,
    "name":"Carewell Hospital",
    "amenity":"hospital",
    "healthcare":"hospital",
    "addr:street":null,
    "addr:city":null,
    "addr:postcode":302004.0,
    "contact:phone":null,
    "contact:website":null,
    "@lat":26.9009951,
    "@lon":75.8267596
  },
  {
    "@id":7030589195,
    "name":"Centre For Sight",
    "amenity":"hospital",
    "healthcare":null,
    "addr:street":null,
    "addr:city":null,
    "addr:postcode":302017.0,
    "contact:phone":null,
    "contact:website":null,
    "@lat":26.8593131,
    "@lon":75.8081784
  },
  {
    "@id":7030599187,
    "name":"Government Dental College and Hospital, Jaipur",
    "amenity":"hospital",
    "healthcare":"hospital",
    "addr:street":null,
    "addr:city":null,
    "addr:postcode":302013.0,
    "contact:phone":null,
    "contact:website":null,
    "@lat":26.9378,
    "@lon":75.7929099
  },
  {
    "@id":7030617003,
    "name":"Jaipur Fertility Centre",
    "amenity":"hospital",
    "healthcare":"hospital",
    "addr:street":null,
    "addr:city":null,
    "addr:postcode":302016.0,
    "contact:phone":null,
    "contact:website":null,
    "@lat":26.9354644,
    "@lon":75.7881075
  },
  {
    "@id":7030621054,
    "name":"Zanana Hospital",
    "amenity":"hospital",
    "healthcare":"hospital",
    "addr:street":null,
    "addr:city":null,
    "addr:postcode":302001.0,
    "contact:phone":null,
    "contact:website":null,
    "@lat":26.9263698,
    "@lon":75.806627
  },
  {
    "@id":7030626395,
    "name":"Jaipur Calgary Eye Hospital",
    "amenity":"hospital",
    "healthcare":null,
    "addr:street":null,
    "addr:city":null,
    "addr:postcode":302017.0,
    "contact:phone":null,
    "contact:website":null,
    "@lat":26.8559437,
    "@lon":75.8222223
  },
  {
    "@id":7030653289,
    "name":"Jain Hospital, Jaipur",
    "amenity":"hospital",
    "healthcare":"hospital",
    "addr:street":null,
    "addr:city":null,
    "addr:postcode":302004.0,
    "contact:phone":null,
    "contact:website":null,
    "@lat":26.8968605,
    "@lon":75.8372819
  },
  {
    "@id":7030693236,
    "name":"Rawal Hospital, Jaipur",
    "amenity":"hospital",
    "healthcare":null,
    "addr:street":null,
    "addr:city":null,
    "addr:postcode":302026.0,
    "contact:phone":null,
    "contact:website":null,
    "@lat":26.8715679,
    "@lon":75.7009154
  },
  {
    "@id":7030706668,
    "name":"Jain Fertility and Mother Care Hospital",
    "amenity":"hospital",
    "healthcare":"hospital",
    "addr:street":null,
    "addr:city":null,
    "addr:postcode":302021.0,
    "contact:phone":null,
    "contact:website":null,
    "@lat":26.9118613,
    "@lon":75.7502174
  },
  {
    "@id":7030741194,
    "name":"Jain ENT Hospital, Jaipur",
    "amenity":"hospital",
    "healthcare":"hospital",
    "addr:street":null,
    "addr:city":null,
    "addr:postcode":302015.0,
    "contact:phone":null,
    "contact:website":null,
    "@lat":26.8915847,
    "@lon":75.800187
  },
  {
    "@id":7030741596,
    "name":"Khandaka Hospital",
    "amenity":"hospital",
    "healthcare":null,
    "addr:street":null,
    "addr:city":null,
    "addr:postcode":302018.0,
    "contact:phone":null,
    "contact:website":null,
    "@lat":26.8564929,
    "@lon":75.7960518
  },
  {
    "@id":7030796055,
    "name":"Sita Devi Hospital",
    "amenity":"hospital",
    "healthcare":"hospital",
    "addr:street":null,
    "addr:city":null,
    "addr:postcode":302019.0,
    "contact:phone":null,
    "contact:website":null,
    "@lat":26.898157,
    "@lon":75.7805492
  },
  {
    "@id":7030849552,
    "name":"Monika Hospital",
    "amenity":"hospital",
    "healthcare":"hospital",
    "addr:street":null,
    "addr:city":null,
    "addr:postcode":302012.0,
    "contact:phone":null,
    "contact:website":null,
    "@lat":26.9434985,
    "@lon":75.7528141
  },
  {
    "@id":7030952427,
    "name":"Madan Parnami Memorial Hospital",
    "amenity":"hospital",
    "healthcare":"hospital",
    "addr:street":null,
    "addr:city":null,
    "addr:postcode":302004.0,
    "contact:phone":null,
    "contact:website":null,
    "@lat":26.8976523,
    "@lon":75.8240989
  },
  {
    "@id":7034744567,
    "name":"Jyoti Chest and General Hospital",
    "amenity":"hospital",
    "healthcare":"hospital",
    "addr:street":null,
    "addr:city":null,
    "addr:postcode":332001.0,
    "contact:phone":null,
    "contact:website":null,
    "@lat":27.0096815,
    "@lon":75.7692732
  },
  {
    "@id":7034765483,
    "name":"K.K Diagnostic Centre , Jaipur",
    "amenity":"hospital",
    "healthcare":"hospital",
    "addr:street":null,
    "addr:city":null,
    "addr:postcode":302002.0,
    "contact:phone":null,
    "contact:website":null,
    "@lat":26.9260733,
    "@lon":75.8314803
  },
  {
    "@id":7034765952,
    "name":"K.C. Memorial Eye Hospital",
    "amenity":"hospital",
    "healthcare":"hospital",
    "addr:street":null,
    "addr:city":null,
    "addr:postcode":302001.0,
    "contact:phone":null,
    "contact:website":null,
    "@lat":26.9136622,
    "@lon":75.8025286
  },
  {
    "@id":7034856996,
    "name":"Vasundhra Hospital",
    "amenity":"hospital",
    "healthcare":"hospital",
    "addr:street":null,
    "addr:city":null,
    "addr:postcode":302004.0,
    "contact:phone":null,
    "contact:website":null,
    "@lat":26.898218,
    "@lon":75.8236563
  },
  {
    "@id":7034908135,
    "name":"Jindal Eye Hospital",
    "amenity":"hospital",
    "healthcare":"hospital",
    "addr:street":null,
    "addr:city":null,
    "addr:postcode":302021.0,
    "contact:phone":null,
    "contact:website":null,
    "@lat":26.8996424,
    "@lon":75.7368386
  },
  {
    "@id":7034953778,
    "name":"Jha Hospital",
    "amenity":"hospital",
    "healthcare":"hospital",
    "addr:street":null,
    "addr:city":null,
    "addr:postcode":302012.0,
    "contact:phone":null,
    "contact:website":null,
    "@lat":26.9772622,
    "@lon":75.7726796
  },
  {
    "@id":7034998849,
    "name":"Sadhana Hospital Pvt. Ltd.",
    "amenity":"hospital",
    "healthcare":"hospital",
    "addr:street":null,
    "addr:city":null,
    "addr:postcode":302012.0,
    "contact:phone":null,
    "contact:website":null,
    "@lat":26.9225486,
    "@lon":75.7534271
  },
  {
    "@id":7035005280,
    "name":"Shubh Hospital",
    "amenity":"hospital",
    "healthcare":null,
    "addr:street":null,
    "addr:city":null,
    "addr:postcode":302021.0,
    "contact:phone":null,
    "contact:website":null,
    "@lat":26.8972552,
    "@lon":75.7522546
  },
  {
    "@id":7035008372,
    "name":"Gopinath Hospital",
    "amenity":"hospital",
    "healthcare":null,
    "addr:street":null,
    "addr:city":null,
    "addr:postcode":302033.0,
    "contact:phone":null,
    "contact:website":null,
    "@lat":26.8019159,
    "@lon":75.8131447
  },
  {
    "@id":7035072949,
    "name":"Shri Ram Hospital",
    "amenity":"hospital",
    "healthcare":"hospital",
    "addr:street":null,
    "addr:city":null,
    "addr:postcode":302013.0,
    "contact:phone":null,
    "contact:website":null,
    "@lat":26.9820428,
    "@lon":75.7721069
  },
  {
    "@id":7035093683,
    "name":"Gem Hospital",
    "amenity":"hospital",
    "healthcare":"hospital",
    "addr:street":null,
    "addr:city":null,
    "addr:postcode":302020.0,
    "contact:phone":null,
    "contact:website":null,
    "@lat":26.8631478,
    "@lon":75.7544397
  },
  {
    "@id":7035102789,
    "name":"Shri Niddan Hospital and Hope Fertility Centre",
    "amenity":"hospital",
    "healthcare":null,
    "addr:street":null,
    "addr:city":null,
    "addr:postcode":302021.0,
    "contact:phone":null,
    "contact:website":null,
    "@lat":26.897425,
    "@lon":75.7516202
  },
  {
    "@id":7035107000,
    "name":"Gautam Hospital and Research Center",
    "amenity":"hospital",
    "healthcare":"hospital",
    "addr:street":null,
    "addr:city":null,
    "addr:postcode":302006.0,
    "contact:phone":null,
    "contact:website":null,
    "@lat":26.9096883,
    "@lon":75.7899821
  },
  {
    "@id":7035131690,
    "name":"Jeevan Shri Hospital and Fertility Center",
    "amenity":"hospital",
    "healthcare":"hospital",
    "addr:street":null,
    "addr:city":null,
    "addr:postcode":302001.0,
    "contact:phone":null,
    "contact:website":null,
    "@lat":26.9429908,
    "@lon":75.7496845
  },
  {
    "@id":7035163535,
    "name":"M.D.D. Hospital",
    "amenity":"hospital",
    "healthcare":"hospital",
    "addr:street":null,
    "addr:city":null,
    "addr:postcode":302012.0,
    "contact:phone":null,
    "contact:website":null,
    "@lat":26.971395,
    "@lon":75.760497
  },
  {
    "@id":7035249224,
    "name":"Soni Hospital",
    "amenity":"hospital",
    "healthcare":"hospital",
    "addr:street":null,
    "addr:city":null,
    "addr:postcode":302004.0,
    "contact:phone":null,
    "contact:website":null,
    "@lat":26.8957806,
    "@lon":75.8146733
  },
  {
    "@id":7035249243,
    "name":"Royal Eye Care and Research Centre",
    "amenity":"hospital",
    "healthcare":"hospital",
    "addr:street":null,
    "addr:city":null,
    "addr:postcode":302004.0,
    "contact:phone":null,
    "contact:website":null,
    "@lat":26.899285,
    "@lon":75.8339544
  },
  {
    "@id":7035250092,
    "name":"Chawla Hospital and Laparoscopy Centre",
    "amenity":"hospital",
    "healthcare":"hospital",
    "addr:street":null,
    "addr:city":null,
    "addr:postcode":302004.0,
    "contact:phone":null,
    "contact:website":null,
    "@lat":26.8995779,
    "@lon":75.8318694
  },
  {
    "@id":7035250100,
    "name":"Dr Mahendra Orthopaedic Centre",
    "amenity":"hospital",
    "healthcare":null,
    "addr:street":null,
    "addr:city":null,
    "addr:postcode":302021.0,
    "contact:phone":null,
    "contact:website":null,
    "@lat":26.9013367,
    "@lon":75.739079
  },
  {
    "@id":7035294692,
    "name":"Gangori Hospital",
    "amenity":"hospital",
    "healthcare":null,
    "addr:street":null,
    "addr:city":null,
    "addr:postcode":302001.0,
    "contact:phone":null,
    "contact:website":null,
    "@lat":26.9303934,
    "@lon":75.8203457
  },
  {
    "@id":7035294751,
    "name":"Ganadhipati Purushottam Shekhawati Hospital and Research Center",
    "amenity":"hospital",
    "healthcare":"hospital",
    "addr:street":null,
    "addr:city":null,
    "addr:postcode":302039.0,
    "contact:phone":null,
    "contact:website":null,
    "@lat":26.9599811,
    "@lon":75.7773485
  },
  {
    "@id":7036670276,
    "name":"Girdhar Hospital and Research Centre",
    "amenity":"hospital",
    "healthcare":null,
    "addr:street":null,
    "addr:city":null,
    "addr:postcode":302018.0,
    "contact:phone":null,
    "contact:website":null,
    "@lat":26.8454675,
    "@lon":75.8131608
  },
  {
    "@id":7036728296,
    "name":"Global Advanced Ent Surgery Centre",
    "amenity":"hospital",
    "healthcare":"hospital",
    "addr:street":null,
    "addr:city":null,
    "addr:postcode":302006.0,
    "contact:phone":null,
    "contact:website":null,
    "@lat":26.889592,
    "@lon":75.8037262
  },
  {
    "@id":7036731239,
    "name":"Ghiya Hospital",
    "amenity":"hospital",
    "healthcare":null,
    "addr:street":null,
    "addr:city":null,
    "addr:postcode":302017.0,
    "contact:phone":null,
    "contact:website":null,
    "@lat":26.8467981,
    "@lon":75.8101729
  },
  {
    "@id":7036733935,
    "name":"Ginni Devi Memorial Hospital",
    "amenity":"hospital",
    "healthcare":null,
    "addr:street":null,
    "addr:city":null,
    "addr:postcode":302020.0,
    "contact:phone":null,
    "contact:website":null,
    "@lat":26.8502608,
    "@lon":75.7695696
  },
  {
    "@id":7036743535,
    "name":"Gupta Hospital",
    "amenity":"hospital",
    "healthcare":null,
    "addr:street":null,
    "addr:city":null,
    "addr:postcode":302016.0,
    "contact:phone":null,
    "contact:website":null,
    "@lat":26.9434696,
    "@lon":75.803289
  },
  {
    "@id":7036743841,
    "name":"Gupta Hospital and Diagnostic Centre Jaipur",
    "amenity":"hospital",
    "healthcare":null,
    "addr:street":null,
    "addr:city":null,
    "addr:postcode":302020.0,
    "contact:phone":null,
    "contact:website":null,
    "@lat":26.8516129,
    "@lon":75.7679455
  },
  {
    "@id":7036765142,
    "name":"Goyal Hospital, Jaipur",
    "amenity":"hospital",
    "healthcare":null,
    "addr:street":null,
    "addr:city":null,
    "addr:postcode":302016.0,
    "contact:phone":null,
    "contact:website":null,
    "@lat":26.9379927,
    "@lon":75.8008106
  },
  {
    "@id":7036785909,
    "name":"Gupta Child andGenral",
    "amenity":"hospital",
    "healthcare":"hospital",
    "addr:street":null,
    "addr:city":null,
    "addr:postcode":302021.0,
    "contact:phone":null,
    "contact:website":null,
    "@lat":26.9112107,
    "@lon":75.7420742
  },
  {
    "@id":7036787752,
    "name":"Gupta Chest And General Hospital",
    "amenity":"hospital",
    "healthcare":"hospital",
    "addr:street":null,
    "addr:city":null,
    "addr:postcode":302012.0,
    "contact:phone":null,
    "contact:website":null,
    "@lat":26.9431014,
    "@lon":75.7600585
  },
  {
    "@id":7036855302,
    "name":"Durgapura Hospital",
    "amenity":"hospital",
    "healthcare":null,
    "addr:street":null,
    "addr:city":null,
    "addr:postcode":302015.0,
    "contact:phone":null,
    "contact:website":null,
    "@lat":26.8461836,
    "@lon":75.7938087
  },
  {
    "@id":7037297424,
    "name":"Shree Narayan Chikitsalay",
    "amenity":"hospital",
    "healthcare":null,
    "addr:street":null,
    "addr:city":null,
    "addr:postcode":302015.0,
    "contact:phone":null,
    "contact:website":null,
    "@lat":26.8535082,
    "@lon":75.7898913
  },
  {
    "@id":7037332489,
    "name":"Shri Brij Fracture Hospital",
    "amenity":"hospital",
    "healthcare":"hospital",
    "addr:street":null,
    "addr:city":null,
    "addr:postcode":302012.0,
    "contact:phone":null,
    "contact:website":null,
    "@lat":26.9429962,
    "@lon":75.7505755
  },
  {
    "@id":7037356085,
    "name":"Shri Hospital",
    "amenity":"hospital",
    "healthcare":null,
    "addr:street":null,
    "addr:city":null,
    "addr:postcode":302017.0,
    "contact:phone":null,
    "contact:website":null,
    "@lat":26.8475232,
    "@lon":75.8270252
  },
  {
    "@id":7037481103,
    "name":"Marudhar Hospital",
    "amenity":"hospital",
    "healthcare":"hospital",
    "addr:street":null,
    "addr:city":null,
    "addr:postcode":302003.0,
    "contact:phone":null,
    "contact:website":null,
    "@lat":26.9269572,
    "@lon":75.7463547
  },
  {
    "@id":7037488089,
    "name":"Ram Avtar Eye Hospital and Glaucoma Pavilion",
    "amenity":"hospital",
    "healthcare":"hospital",
    "addr:street":null,
    "addr:city":null,
    "addr:postcode":302004.0,
    "contact:phone":null,
    "contact:website":null,
    "@lat":26.89272,
    "@lon":75.8242251
  },
  {
    "@id":7037513017,
    "name":"Ram Janki Memorial Vijayvergia Hospital",
    "amenity":"hospital",
    "healthcare":null,
    "addr:street":null,
    "addr:city":null,
    "addr:postcode":302017.0,
    "contact:phone":null,
    "contact:website":null,
    "@lat":26.8470661,
    "@lon":75.827457
  },
  {
    "@id":7037563460,
    "name":"Retina Care Foundation and Eye Hospital",
    "amenity":"hospital",
    "healthcare":"hospital",
    "addr:street":null,
    "addr:city":null,
    "addr:postcode":302018.0,
    "contact:phone":null,
    "contact:website":null,
    "@lat":26.8691625,
    "@lon":75.79438
  },
  {
    "@id":7037601487,
    "name":"Military hospital Jaipur",
    "amenity":"hospital",
    "healthcare":"hospital",
    "addr:street":null,
    "addr:city":null,
    "addr:postcode":null,
    "contact:phone":null,
    "contact:website":null,
    "@lat":26.929235,
    "@lon":75.783441
  },
  {
    "@id":7037606522,
    "name":"Dr.Mamodias Proctology and IRC Centre",
    "amenity":"hospital",
    "healthcare":"hospital",
    "addr:street":null,
    "addr:city":null,
    "addr:postcode":302004.0,
    "contact:phone":null,
    "contact:website":null,
    "@lat":26.8970829,
    "@lon":75.8233532
  },
  {
    "@id":7037696459,
    "name":"Kshitij Hospital and Medical Research Centre",
    "amenity":"hospital",
    "healthcare":null,
    "addr:street":null,
    "addr:city":null,
    "addr:postcode":302019.0,
    "contact:phone":null,
    "contact:website":null,
    "@lat":26.8823278,
    "@lon":75.7471061
  },
  {
    "@id":7037738561,
    "name":"Krishna Ram Hospital and Research Centre",
    "amenity":"hospital",
    "healthcare":"hospital",
    "addr:street":null,
    "addr:city":null,
    "addr:postcode":302015.0,
    "contact:phone":null,
    "contact:website":null,
    "@lat":26.8710868,
    "@lon":75.8003439
  },
  {
    "@id":7037748710,
    "name":"Krishna Mother and Child Hospital",
    "amenity":"hospital",
    "healthcare":null,
    "addr:street":null,
    "addr:city":null,
    "addr:postcode":302012.0,
    "contact:phone":null,
    "contact:website":null,
    "@lat":26.9452139,
    "@lon":75.7429527
  },
  {
    "@id":7037995243,
    "name":"Diwakar Orthopedic and General Hospital",
    "amenity":"hospital",
    "healthcare":"hospital",
    "addr:street":null,
    "addr:city":null,
    "addr:postcode":302016.0,
    "contact:phone":null,
    "contact:website":null,
    "@lat":26.9372945,
    "@lon":75.7896405
  },
  {
    "@id":7038143732,
    "name":"Rajat Maternity and General Hospital",
    "amenity":"hospital",
    "healthcare":null,
    "addr:street":null,
    "addr:city":null,
    "addr:postcode":302021.0,
    "contact:phone":null,
    "contact:website":null,
    "@lat":26.9229847,
    "@lon":75.7236005
  },
  {
    "@id":7038146063,
    "name":"Dwarka Orthopaedic and Trauma Hospital",
    "amenity":"hospital",
    "healthcare":null,
    "addr:street":null,
    "addr:city":null,
    "addr:postcode":302003.0,
    "contact:phone":null,
    "contact:website":null,
    "@lat":26.8982742,
    "@lon":75.765447
  },
  {
    "@id":7038167921,
    "name":"Sevayatan Hospital",
    "amenity":"hospital",
    "healthcare":null,
    "addr:street":null,
    "addr:city":null,
    "addr:postcode":302006.0,
    "contact:phone":null,
    "contact:website":null,
    "@lat":26.9012953,
    "@lon":75.7702173
  },
  {
    "@id":7038169412,
    "name":"Kcj Diagnostic and Research Center",
    "amenity":"hospital",
    "healthcare":"hospital",
    "addr:street":null,
    "addr:city":null,
    "addr:postcode":302004.0,
    "contact:phone":null,
    "contact:website":null,
    "@lat":26.9059822,
    "@lon":75.8130455
  },
  {
    "@id":7038265808,
    "name":"Dr Agarwals Eye Hospital",
    "amenity":"hospital",
    "healthcare":"hospital",
    "addr:street":null,
    "addr:city":null,
    "addr:postcode":302001.0,
    "contact:phone":null,
    "contact:website":null,
    "@lat":26.9080954,
    "@lon":75.7908113
  },
  {
    "@id":7038265813,
    "name":"Agarwal Hospital and Fertility Research Centre",
    "amenity":"hospital",
    "healthcare":null,
    "addr:street":null,
    "addr:city":null,
    "addr:postcode":302024.0,
    "contact:phone":null,
    "contact:website":null,
    "@lat":26.8973861,
    "@lon":75.7438412
  },
  {
    "@id":7038293279,
    "name":"Deshbandhu E.N.T. Hospital",
    "amenity":"hospital",
    "healthcare":"hospital",
    "addr:street":null,
    "addr:city":null,
    "addr:postcode":302020.0,
    "contact:phone":null,
    "contact:website":null,
    "@lat":26.8598745,
    "@lon":75.7565609
  },
  {
    "@id":7038417542,
    "name":"Bagree Hospital and Research Centre",
    "amenity":"hospital",
    "healthcare":"hospital",
    "addr:street":null,
    "addr:city":null,
    "addr:postcode":302012.0,
    "contact:phone":null,
    "contact:website":null,
    "@lat":26.9699057,
    "@lon":75.7446559
  },
  {
    "@id":7038417547,
    "name":"Nirmala Hospital and Research Center",
    "amenity":"hospital",
    "healthcare":null,
    "addr:street":null,
    "addr:city":null,
    "addr:postcode":302005.0,
    "contact:phone":null,
    "contact:website":null,
    "@lat":26.9098833,
    "@lon":75.8023066
  },
  {
    "@id":7038464449,
    "name":"Raj Khurana Memorial Hospital",
    "amenity":"hospital",
    "healthcare":"hospital",
    "addr:street":null,
    "addr:city":null,
    "addr:postcode":302004.0,
    "contact:phone":null,
    "contact:website":null,
    "@lat":26.8972528,
    "@lon":75.8260462
  },
  {
    "@id":7038735480,
    "name":"Jeevan Rekha Critical Care and Trauma Hospital",
    "amenity":"hospital",
    "healthcare":null,
    "addr:street":null,
    "addr:city":null,
    "addr:postcode":302025.0,
    "contact:phone":null,
    "contact:website":null,
    "@lat":26.8007644,
    "@lon":75.8619395
  },
  {
    "@id":7038935616,
    "name":"Khetan Hospital",
    "amenity":"hospital",
    "healthcare":"hospital",
    "addr:street":null,
    "addr:city":null,
    "addr:postcode":302016.0,
    "contact:phone":null,
    "contact:website":null,
    "@lat":26.9590726,
    "@lon":75.7710944
  },
  {
    "@id":7038935621,
    "name":"Malpani Multispeciality Hospital",
    "amenity":"hospital",
    "healthcare":"hospital",
    "addr:street":null,
    "addr:city":null,
    "addr:postcode":302004.0,
    "contact:phone":null,
    "contact:website":null,
    "@lat":26.9736181,
    "@lon":75.7763448
  },
  {
    "@id":7038940663,
    "name":"Prem Hospital",
    "amenity":"hospital",
    "healthcare":null,
    "addr:street":null,
    "addr:city":null,
    "addr:postcode":302001.0,
    "contact:phone":null,
    "contact:website":null,
    "@lat":26.9737089,
    "@lon":75.6260902
  },
  {
    "@id":7038990174,
    "name":"Pragati Orthopaedic and General Hospital",
    "amenity":"hospital",
    "healthcare":"hospital",
    "addr:street":null,
    "addr:city":null,
    "addr:postcode":302004.0,
    "contact:phone":null,
    "contact:website":null,
    "@lat":26.9032106,
    "@lon":75.8354983
  },
  {
    "@id":7039387654,
    "name":"Atulya Hospital",
    "amenity":"hospital",
    "healthcare":null,
    "addr:street":null,
    "addr:city":null,
    "addr:postcode":302019.0,
    "contact:phone":null,
    "contact:website":null,
    "@lat":26.8974788,
    "@lon":75.7717301
  },
  {
    "@id":7039412914,
    "name":"Ayush Hospital",
    "amenity":"hospital",
    "healthcare":null,
    "addr:street":null,
    "addr:city":null,
    "addr:postcode":302019.0,
    "contact:phone":null,
    "contact:website":null,
    "@lat":26.8860287,
    "@lon":75.7525188
  },
  {
    "@id":7039433534,
    "name":"Atal Hospital and Reseach Center",
    "amenity":"hospital",
    "healthcare":"hospital",
    "addr:street":null,
    "addr:city":null,
    "addr:postcode":302005.0,
    "contact:phone":null,
    "contact:website":null,
    "@lat":26.8811209,
    "@lon":75.7815757
  },
  {
    "@id":7039479669,
    "name":"Arya Hospital- Jaipur",
    "amenity":"hospital",
    "healthcare":"hospital",
    "addr:street":null,
    "addr:city":null,
    "addr:postcode":302017.0,
    "contact:phone":null,
    "contact:website":null,
    "@lat":26.9003923,
    "@lon":75.8190637
  },
  {
    "@id":7039491572,
    "name":"Swastik Hospital, Jaipur",
    "amenity":"hospital",
    "healthcare":"hospital",
    "addr:street":null,
    "addr:city":null,
    "addr:postcode":302004.0,
    "contact:phone":null,
    "contact:website":null,
    "@lat":26.8916923,
    "@lon":75.8398126
  },
  {
    "@id":7039514016,
    "name":"Nova Specialty Surgery",
    "amenity":"hospital",
    "healthcare":"hospital",
    "addr:street":null,
    "addr:city":null,
    "addr:postcode":302004.0,
    "contact:phone":null,
    "contact:website":null,
    "@lat":26.9136323,
    "@lon":75.8127075
  },
  {
    "@id":7039515196,
    "name":"Shah Hospital, Jaipur",
    "amenity":"hospital",
    "healthcare":"hospital",
    "addr:street":null,
    "addr:city":null,
    "addr:postcode":302001.0,
    "contact:phone":null,
    "contact:website":null,
    "@lat":26.9243777,
    "@lon":75.7892007
  },
  {
    "@id":7039556018,
    "name":"Sr Kalla Memorial Gastro and General Hospital",
    "amenity":"hospital",
    "healthcare":"hospital",
    "addr:street":null,
    "addr:city":null,
    "addr:postcode":302001.0,
    "contact:phone":null,
    "contact:website":null,
    "@lat":26.9128574,
    "@lon":75.7970139
  },
  {
    "@id":7039567318,
    "name":"Dhuleshwar Hospital and Laser Skin Centre",
    "amenity":"hospital",
    "healthcare":"hospital",
    "addr:street":null,
    "addr:city":null,
    "addr:postcode":302001.0,
    "contact:phone":null,
    "contact:website":null,
    "@lat":26.9139408,
    "@lon":75.7984489
  },
  {
    "@id":7039702397,
    "name":"Vivekanand Hospital and Fertility Centre",
    "amenity":"hospital",
    "healthcare":"hospital",
    "addr:street":null,
    "addr:city":null,
    "addr:postcode":302001.0,
    "contact:phone":null,
    "contact:website":null,
    "@lat":26.9144575,
    "@lon":75.7962348
  },
  {
    "@id":7039952681,
    "name":"Dhanvantari Hospital,Jaipur",
    "amenity":"hospital",
    "healthcare":"hospital",
    "addr:street":null,
    "addr:city":null,
    "addr:postcode":302020.0,
    "contact:phone":null,
    "contact:website":null,
    "@lat":26.858026,
    "@lon":75.7572716
  },
  {
    "@id":7039981955,
    "name":"Pink City Heart and General Hospital",
    "amenity":"hospital",
    "healthcare":"hospital",
    "addr:street":null,
    "addr:city":null,
    "addr:postcode":302013.0,
    "contact:phone":null,
    "contact:website":null,
    "@lat":26.9715839,
    "@lon":75.7708263
  },
  {
    "@id":7039989682,
    "name":"Prakash Mother and Child Hospital",
    "amenity":"hospital",
    "healthcare":null,
    "addr:street":null,
    "addr:city":null,
    "addr:postcode":302033.0,
    "contact:phone":null,
    "contact:website":null,
    "@lat":26.8042285,
    "@lon":75.8093964
  },
  {
    "@id":7039990476,
    "name":"Sahai Hospital and Research Centre",
    "amenity":"hospital",
    "healthcare":"hospital",
    "addr:street":null,
    "addr:city":null,
    "addr:postcode":302005.0,
    "contact:phone":null,
    "contact:website":null,
    "@lat":26.8959216,
    "@lon":75.8198114
  },
  {
    "@id":7039998078,
    "name":"Agrasen Orthopaedic Hospital",
    "amenity":"hospital",
    "healthcare":null,
    "addr:street":null,
    "addr:city":null,
    "addr:postcode":302017.0,
    "contact:phone":null,
    "contact:website":null,
    "@lat":26.857502,
    "@lon":75.8131421
  },
  {
    "@id":7040013480,
    "name":"Agrawal Hospital",
    "amenity":"hospital",
    "healthcare":null,
    "addr:street":null,
    "addr:city":null,
    "addr:postcode":302017.0,
    "contact:phone":null,
    "contact:website":null,
    "@lat":26.8546041,
    "@lon":75.8248325
  },
  {
    "@id":7040014655,
    "name":"Agrawal Heart and General Hospital ( Bagru )",
    "amenity":"hospital",
    "healthcare":null,
    "addr:street":null,
    "addr:city":null,
    "addr:postcode":303007.0,
    "contact:phone":null,
    "contact:website":null,
    "@lat":26.8189556,
    "@lon":75.542762
  },
  {
    "@id":7040017904,
    "name":"Agrasen Hospital",
    "amenity":"hospital",
    "healthcare":null,
    "addr:street":null,
    "addr:city":null,
    "addr:postcode":302019.0,
    "contact:phone":null,
    "contact:website":null,
    "@lat":26.886207,
    "@lon":75.764979
  },
  {
    "@id":7040020566,
    "name":"Advanced Neurology and Superspeciality Hospital",
    "amenity":"hospital",
    "healthcare":null,
    "addr:street":null,
    "addr:city":null,
    "addr:postcode":302017.0,
    "contact:phone":null,
    "contact:website":null,
    "@lat":26.8521418,
    "@lon":75.8103311
  },
  {
    "@id":7040026262,
    "name":"Aditi General and Eye Hospital",
    "amenity":"hospital",
    "healthcare":null,
    "addr:street":null,
    "addr:city":null,
    "addr:postcode":302021.0,
    "contact:phone":null,
    "contact:website":null,
    "@lat":26.8972534,
    "@lon":75.7392506
  },
  {
    "@id":7040044511,
    "name":"Mansarovar Hospital",
    "amenity":"hospital",
    "healthcare":null,
    "addr:street":null,
    "addr:city":null,
    "addr:postcode":302020.0,
    "contact:phone":null,
    "contact:website":null,
    "@lat":26.8477082,
    "@lon":75.7698276
  },
  {
    "@id":7040045984,
    "name":"Aditya Hospital, Jaipur",
    "amenity":"hospital",
    "healthcare":"hospital",
    "addr:street":null,
    "addr:city":null,
    "addr:postcode":302015.0,
    "contact:phone":null,
    "contact:website":null,
    "@lat":26.8902546,
    "@lon":75.7993931
  },
  {
    "@id":7040058512,
    "name":"Swasthya Mangalam Family Health Centre",
    "amenity":"hospital",
    "healthcare":null,
    "addr:street":null,
    "addr:city":null,
    "addr:postcode":302019.0,
    "contact:phone":null,
    "contact:website":null,
    "@lat":26.8785299,
    "@lon":75.7667412
  },
  {
    "@id":7040062370,
    "name":"Aarogya Hospital, Jaipur",
    "amenity":"hospital",
    "healthcare":"hospital",
    "addr:street":null,
    "addr:city":null,
    "addr:postcode":302001.0,
    "contact:phone":null,
    "contact:website":null,
    "@lat":26.9057163,
    "@lon":75.7493268
  },
  {
    "@id":7040078410,
    "name":"Adarsh Hospital, Jaipur",
    "amenity":"hospital",
    "healthcare":null,
    "addr:street":null,
    "addr:city":null,
    "addr:postcode":302021.0,
    "contact:phone":null,
    "contact:website":null,
    "@lat":26.9026778,
    "@lon":75.7394618
  },
  {
    "@id":7040094579,
    "name":"Narayana Multispeciality Hospital",
    "amenity":"hospital",
    "healthcare":"hospital",
    "addr:street":null,
    "addr:city":null,
    "addr:postcode":302033.0,
    "contact:phone":null,
    "contact:website":null,
    "@lat":26.7949954,
    "@lon":75.8241633
  },
  {
    "@id":7040100239,
    "name":"Tagore Hospital and Research Institute",
    "amenity":"hospital",
    "healthcare":"hospital",
    "addr:street":null,
    "addr:city":null,
    "addr:postcode":302020.0,
    "contact:phone":null,
    "contact:website":null,
    "@lat":26.8589843,
    "@lon":75.7696433
  },
  {
    "@id":7040101983,
    "name":"Pooja Hospital and Medical Research Centre",
    "amenity":"hospital",
    "healthcare":"hospital",
    "addr:street":null,
    "addr:city":null,
    "addr:postcode":302006.0,
    "contact:phone":null,
    "contact:website":null,
    "@lat":26.8990259,
    "@lon":75.779359
  },
  {
    "@id":7040112693,
    "name":"Narmada Hospital and Diagnostic Centre",
    "amenity":"hospital",
    "healthcare":"hospital",
    "addr:street":null,
    "addr:city":null,
    "addr:postcode":302001.0,
    "contact:phone":null,
    "contact:website":null,
    "@lat":26.9754061,
    "@lon":75.7651426
  },
  {
    "@id":7040112723,
    "name":"Bhagwan Mahaveer Cancer Hospital and Research Center",
    "amenity":"hospital",
    "healthcare":null,
    "addr:street":null,
    "addr:city":null,
    "addr:postcode":302015.0,
    "contact:phone":null,
    "contact:website":null,
    "@lat":26.8630701,
    "@lon":75.8055353
  },
  {
    "@id":7040112739,
    "name":"Meera Hospital, Jaipur",
    "amenity":"hospital",
    "healthcare":"hospital",
    "addr:street":null,
    "addr:city":null,
    "addr:postcode":302016.0,
    "contact:phone":null,
    "contact:website":null,
    "@lat":26.929878,
    "@lon":75.8011875
  },
  {
    "@id":7040112750,
    "name":"Deep Hospital and Research Centre",
    "amenity":"hospital",
    "healthcare":"hospital",
    "addr:street":null,
    "addr:city":null,
    "addr:postcode":302012.0,
    "contact:phone":null,
    "contact:website":null,
    "@lat":26.936564,
    "@lon":75.7563302
  },
  {
    "@id":7040112760,
    "name":"Chirag Hospital",
    "amenity":"hospital",
    "healthcare":"hospital",
    "addr:street":null,
    "addr:city":null,
    "addr:postcode":302001.0,
    "contact:phone":null,
    "contact:website":null,
    "@lat":26.8662829,
    "@lon":75.7643916
  },
  {
    "@id":7040117130,
    "name":"Solomon Hospital",
    "amenity":"hospital",
    "healthcare":null,
    "addr:street":null,
    "addr:city":null,
    "addr:postcode":302018.0,
    "contact:phone":null,
    "contact:website":null,
    "@lat":26.8471475,
    "@lon":75.8087178
  },
  {
    "@id":7040117143,
    "name":"Maharshi Child Hospital",
    "amenity":"hospital",
    "healthcare":"hospital",
    "addr:street":null,
    "addr:city":null,
    "addr:postcode":302016.0,
    "contact:phone":null,
    "contact:website":null,
    "@lat":26.9359662,
    "@lon":75.7957385
  },
  {
    "@id":7040129019,
    "name":"Manu Hospital and Research Center",
    "amenity":"hospital",
    "healthcare":null,
    "addr:street":null,
    "addr:city":null,
    "addr:postcode":302019.0,
    "contact:phone":null,
    "contact:website":null,
    "@lat":26.8979859,
    "@lon":75.7679924
  },
  {
    "@id":7040134143,
    "name":"Sonkhiya Hospital",
    "amenity":"hospital",
    "healthcare":null,
    "addr:street":null,
    "addr:city":null,
    "addr:postcode":302016.0,
    "contact:phone":null,
    "contact:website":null,
    "@lat":26.9469485,
    "@lon":75.79714
  },
  {
    "@id":7040142166,
    "name":"Satellite Hospital, Jaipur",
    "amenity":"hospital",
    "healthcare":"hospital",
    "addr:street":null,
    "addr:city":null,
    "addr:postcode":302016.0,
    "contact:phone":null,
    "contact:website":null,
    "@lat":26.928861,
    "@lon":75.7972808
  },
  {
    "@id":7040143007,
    "name":"Rajasthan Hopsital and Gastroenology Centre",
    "amenity":"hospital",
    "healthcare":"hospital",
    "addr:street":null,
    "addr:city":null,
    "addr:postcode":302015.0,
    "contact:phone":null,
    "contact:website":null,
    "@lat":26.8823601,
    "@lon":75.7991289
  },
  {
    "@id":7040146307,
    "name":"Sun Hospital",
    "amenity":"hospital",
    "healthcare":"hospital",
    "addr:street":null,
    "addr:city":null,
    "addr:postcode":302001.0,
    "contact:phone":null,
    "contact:website":null,
    "@lat":26.8830108,
    "@lon":75.7929209
  },
  {
    "@id":7040147102,
    "name":"Bansal Hospital,Jaipur",
    "amenity":"hospital",
    "healthcare":null,
    "addr:street":null,
    "addr:city":null,
    "addr:postcode":302019.0,
    "contact:phone":null,
    "contact:website":null,
    "@lat":26.893209,
    "@lon":75.7630987
  },
  {
    "@id":7040170022,
    "name":"Dulet Hospital",
    "amenity":"hospital",
    "healthcare":null,
    "addr:street":null,
    "addr:city":null,
    "addr:postcode":302019.0,
    "contact:phone":null,
    "contact:website":null,
    "@lat":26.8718913,
    "@lon":75.695326
  },
  {
    "@id":7040171028,
    "name":"Somani Hospital",
    "amenity":"hospital",
    "healthcare":null,
    "addr:street":null,
    "addr:city":null,
    "addr:postcode":302019.0,
    "contact:phone":null,
    "contact:website":null,
    "@lat":26.8794587,
    "@lon":75.7739865
  },
  {
    "@id":7040172653,
    "name":"Metro Hospital and Research Centre",
    "amenity":"hospital",
    "healthcare":"hospital",
    "addr:street":null,
    "addr:city":null,
    "addr:postcode":302021.0,
    "contact:phone":null,
    "contact:website":null,
    "@lat":26.9212879,
    "@lon":75.7412669
  },
  {
    "@id":7040178950,
    "name":"Siddham E N T Center",
    "amenity":"hospital",
    "healthcare":null,
    "addr:street":null,
    "addr:city":null,
    "addr:postcode":302019.0,
    "contact:phone":null,
    "contact:website":null,
    "@lat":26.8798062,
    "@lon":75.7574882
  },
  {
    "@id":7040181512,
    "name":"Eye Surgery and Laser Centre",
    "amenity":"hospital",
    "healthcare":null,
    "addr:street":null,
    "addr:city":null,
    "addr:postcode":302017.0,
    "contact:phone":null,
    "contact:website":null,
    "@lat":26.8511271,
    "@lon":75.8070253
  },
  {
    "@id":7040185404,
    "name":"G M R C Hospital",
    "amenity":"hospital",
    "healthcare":null,
    "addr:street":null,
    "addr:city":null,
    "addr:postcode":302020.0,
    "contact:phone":null,
    "contact:website":null,
    "@lat":26.8472755,
    "@lon":75.7756864
  },
  {
    "@id":7040185975,
    "name":"Liberty Hospital, Jaipur",
    "amenity":"hospital",
    "healthcare":null,
    "addr:street":null,
    "addr:city":null,
    "addr:postcode":302001.0,
    "contact:phone":null,
    "contact:website":null,
    "@lat":26.8444073,
    "@lon":75.7739791
  },
  {
    "@id":7040206604,
    "name":"Swaroop Hospital",
    "amenity":"hospital",
    "healthcare":"hospital",
    "addr:street":null,
    "addr:city":null,
    "addr:postcode":302006.0,
    "contact:phone":null,
    "contact:website":null,
    "@lat":26.9024888,
    "@lon":75.7763958
  },
  {
    "@id":7040215093,
    "name":"Kandoi Hospital",
    "amenity":"hospital",
    "healthcare":null,
    "addr:street":null,
    "addr:city":null,
    "addr:postcode":302026.0,
    "contact:phone":null,
    "contact:website":null,
    "@lat":26.8752677,
    "@lon":75.6897772
  },
  {
    "@id":7040217320,
    "name":"Dr. Goyal's Path Lab and Imaging Centre",
    "amenity":"hospital",
    "healthcare":null,
    "addr:street":null,
    "addr:city":null,
    "addr:postcode":302019.0,
    "contact:phone":null,
    "contact:website":null,
    "@lat":26.8941293,
    "@lon":75.7708476
  },
  {
    "@id":7040281162,
    "name":"Pawan Hospital Pvt. Ltd. , Jaipur",
    "amenity":"hospital",
    "healthcare":"hospital",
    "addr:street":null,
    "addr:city":null,
    "addr:postcode":302001.0,
    "contact:phone":null,
    "contact:website":null,
    "@lat":26.9457016,
    "@lon":75.8421032
  },
  {
    "@id":7040301742,
    "name":"Dr Naresh Goyal Orthopadic Hospital",
    "amenity":"hospital",
    "healthcare":null,
    "addr:street":null,
    "addr:city":null,
    "addr:postcode":302020.0,
    "contact:phone":null,
    "contact:website":null,
    "@lat":26.8504637,
    "@lon":75.7729371
  },
  {
    "@id":7040325916,
    "name":"Star Women and General Hospital",
    "amenity":"hospital",
    "healthcare":null,
    "addr:street":null,
    "addr:city":null,
    "addr:postcode":302005.0,
    "contact:phone":null,
    "contact:website":null,
    "@lat":26.8025515,
    "@lon":75.8086145
  },
  {
    "@id":7040336692,
    "name":"Dr. Virendra Laser and Phaco Surgery Centre - Jaipur",
    "amenity":"hospital",
    "healthcare":"hospital",
    "addr:street":null,
    "addr:city":null,
    "addr:postcode":302015.0,
    "contact:phone":null,
    "contact:website":null,
    "@lat":26.8810467,
    "@lon":75.8007932
  },
  {
    "@id":7040342448,
    "name":"Mendiratta Hospital",
    "amenity":"hospital",
    "healthcare":null,
    "addr:street":null,
    "addr:city":null,
    "addr:postcode":301001.0,
    "contact:phone":null,
    "contact:website":null,
    "@lat":26.9476694,
    "@lon":75.8520998
  },
  {
    "@id":7040383878,
    "name":"Om Ent Hospital",
    "amenity":"hospital",
    "healthcare":"hospital",
    "addr:street":null,
    "addr:city":null,
    "addr:postcode":302013.0,
    "contact:phone":null,
    "contact:website":null,
    "@lat":26.9778323,
    "@lon":75.7729612
  },
  {
    "@id":7040383975,
    "name":"Kedawat Hospital",
    "amenity":"hospital",
    "healthcare":null,
    "addr:street":null,
    "addr:city":null,
    "addr:postcode":304001.0,
    "contact:phone":null,
    "contact:website":null,
    "@lat":26.7667345,
    "@lon":75.8378372
  },
  {
    "@id":7040387295,
    "name":"Dr Sardar Singh Memorial Hospital(Managed By M\/S Kamal Clinic and Nursing Home)",
    "amenity":"hospital",
    "healthcare":"hospital",
    "addr:street":null,
    "addr:city":null,
    "addr:postcode":302016.0,
    "contact:phone":null,
    "contact:website":null,
    "@lat":26.9318006,
    "@lon":75.793002
  },
  {
    "@id":7040396604,
    "name":"Kabra Eye Hospital",
    "amenity":"hospital",
    "healthcare":null,
    "addr:street":null,
    "addr:city":null,
    "addr:postcode":302019.0,
    "contact:phone":null,
    "contact:website":null,
    "@lat":26.9026061,
    "@lon":75.7708114
  },
  {
    "@id":7040396609,
    "name":"Jee Hospital and Research Centre",
    "amenity":"hospital",
    "healthcare":null,
    "addr:street":null,
    "addr:city":null,
    "addr:postcode":302019.0,
    "contact:phone":null,
    "contact:website":null,
    "@lat":26.8863068,
    "@lon":75.7681916
  },
  {
    "@id":7040401357,
    "name":"Dr.Chauhan Orthopadic centre",
    "amenity":"hospital",
    "healthcare":"hospital",
    "addr:street":null,
    "addr:city":null,
    "addr:postcode":302012.0,
    "contact:phone":null,
    "contact:website":null,
    "@lat":26.9390102,
    "@lon":75.7809287
  },
  {
    "@id":7040424595,
    "name":"Neha Maternity and Ent Hospital",
    "amenity":"hospital",
    "healthcare":null,
    "addr:street":null,
    "addr:city":null,
    "addr:postcode":302019.0,
    "contact:phone":null,
    "contact:website":null,
    "@lat":26.8860078,
    "@lon":75.7655959
  },
  {
    "@id":7040431728,
    "name":"Max Vision Eye Care Centre",
    "amenity":"hospital",
    "healthcare":null,
    "addr:street":null,
    "addr:city":null,
    "addr:postcode":302021.0,
    "contact:phone":null,
    "contact:website":null,
    "@lat":26.9086862,
    "@lon":75.7388422
  },
  {
    "@id":7040432235,
    "name":"Dr Atuls Child Hospital",
    "amenity":"hospital",
    "healthcare":"hospital",
    "addr:street":null,
    "addr:city":null,
    "addr:postcode":302016.0,
    "contact:phone":null,
    "contact:website":null,
    "@lat":26.9344657,
    "@lon":75.7975852
  },
  {
    "@id":7040437482,
    "name":"Mahatma Gandhi Medical College and Hospital",
    "amenity":"hospital",
    "healthcare":null,
    "addr:street":null,
    "addr:city":null,
    "addr:postcode":302022.0,
    "contact:phone":null,
    "contact:website":null,
    "@lat":26.7699818,
    "@lon":75.8545017
  },
  {
    "@id":7040445632,
    "name":"Chandra Bhan Hospital",
    "amenity":"hospital",
    "healthcare":"hospital",
    "addr:street":null,
    "addr:city":null,
    "addr:postcode":302006.0,
    "contact:phone":null,
    "contact:website":null,
    "@lat":26.8924184,
    "@lon":75.7791491
  },
  {
    "@id":7040459777,
    "name":"Metro Mas Heart Care and Miltispeciality Hospital",
    "amenity":"hospital",
    "healthcare":"hospital",
    "addr:street":null,
    "addr:city":null,
    "addr:postcode":302020.0,
    "contact:phone":null,
    "contact:website":null,
    "@lat":26.8679919,
    "@lon":75.7683358
  },
  {
    "@id":7040460937,
    "name":"Puru Eye Hospital and Phaco Surgery Centre",
    "amenity":"hospital",
    "healthcare":"hospital",
    "addr:street":null,
    "addr:city":null,
    "addr:postcode":302020.0,
    "contact:phone":null,
    "contact:website":null,
    "@lat":26.867048,
    "@lon":75.7666688
  },
  {
    "@id":7040465304,
    "name":"Sardarmal Khandaka Memorial Hospital",
    "amenity":"hospital",
    "healthcare":null,
    "addr:street":null,
    "addr:city":null,
    "addr:postcode":303706.0,
    "contact:phone":null,
    "contact:website":null,
    "@lat":26.9565002,
    "@lon":75.6854394
  },
  {
    "@id":7040488133,
    "name":"Mahila Chikitsalya",
    "amenity":"hospital",
    "healthcare":"hospital",
    "addr:street":null,
    "addr:city":null,
    "addr:postcode":302003.0,
    "contact:phone":null,
    "contact:website":null,
    "@lat":26.9143851,
    "@lon":75.8241183
  },
  {
    "@id":7040497136,
    "name":"Misra Eye Hospital",
    "amenity":"hospital",
    "healthcare":"hospital",
    "addr:street":null,
    "addr:city":null,
    "addr:postcode":302020.0,
    "contact:phone":null,
    "contact:website":null,
    "@lat":26.8564198,
    "@lon":75.767114
  },
  {
    "@id":7040514654,
    "name":"Balaji Hospital and Orthopaedic",
    "amenity":"hospital",
    "healthcare":"hospital",
    "addr:street":null,
    "addr:city":null,
    "addr:postcode":302012.0,
    "contact:phone":null,
    "contact:website":null,
    "@lat":26.9541386,
    "@lon":75.7699947
  },
  {
    "@id":7040552833,
    "name":"Thar Hospital Pvt. Ltd.",
    "amenity":"hospital",
    "healthcare":"hospital",
    "addr:street":null,
    "addr:city":null,
    "addr:postcode":302012.0,
    "contact:phone":null,
    "contact:website":null,
    "@lat":26.9212045,
    "@lon":75.7422278
  },
  {
    "@id":7040571420,
    "name":"Nalini Hospital",
    "amenity":"hospital",
    "healthcare":"hospital",
    "addr:street":null,
    "addr:city":null,
    "addr:postcode":302015.0,
    "contact:phone":null,
    "contact:website":null,
    "@lat":26.8650943,
    "@lon":75.8007684
  },
  {
    "@id":7040591725,
    "name":"Bansal Hospital and Research Center",
    "amenity":"hospital",
    "healthcare":"hospital",
    "addr:street":null,
    "addr:city":null,
    "addr:postcode":302005.0,
    "contact:phone":null,
    "contact:website":null,
    "@lat":26.887387,
    "@lon":75.7925528
  },
  {
    "@id":7040598132,
    "name":"Deenbandhu Hospital",
    "amenity":"hospital",
    "healthcare":null,
    "addr:street":null,
    "addr:city":null,
    "addr:postcode":302019.0,
    "contact:phone":null,
    "contact:website":null,
    "@lat":26.8967008,
    "@lon":75.7520065
  },
  {
    "@id":7040614880,
    "name":"D. C. Hospital",
    "amenity":"hospital",
    "healthcare":"hospital",
    "addr:street":null,
    "addr:city":null,
    "addr:postcode":302018.0,
    "contact:phone":null,
    "contact:website":null,
    "@lat":26.8669499,
    "@lon":75.7819151
  },
  {
    "@id":7040985055,
    "name":"Dugra Devi Memorial Hospital",
    "amenity":"hospital",
    "healthcare":"hospital",
    "addr:street":null,
    "addr:city":null,
    "addr:postcode":302016.0,
    "contact:phone":null,
    "contact:website":null,
    "@lat":26.9342445,
    "@lon":75.7985401
  },
  {
    "@id":7042738773,
    "name":"Cocoon Hospital",
    "amenity":"hospital",
    "healthcare":null,
    "addr:street":null,
    "addr:city":null,
    "addr:postcode":302016.0,
    "contact:phone":null,
    "contact:website":null,
    "@lat":26.8436989,
    "@lon":75.7945731
  },
  {
    "@id":7042855467,
    "name":"Tb Hospital",
    "amenity":"hospital",
    "healthcare":"hospital",
    "addr:street":null,
    "addr:city":null,
    "addr:postcode":302016.0,
    "contact:phone":null,
    "contact:website":null,
    "@lat":26.8816311,
    "@lon":75.805087
  },
  {
    "@id":7042863527,
    "name":"Priti Maternity and General Hospital",
    "amenity":"hospital",
    "healthcare":"hospital",
    "addr:street":null,
    "addr:city":null,
    "addr:postcode":302020.0,
    "contact:phone":null,
    "contact:website":null,
    "@lat":26.8648838,
    "@lon":75.7591787
  },
  {
    "@id":7042863528,
    "name":"Dr. Panicker's Sanjeevani Hospital Pvt. Ltd.",
    "amenity":"hospital",
    "healthcare":"hospital",
    "addr:street":null,
    "addr:city":null,
    "addr:postcode":302016.0,
    "contact:phone":null,
    "contact:website":null,
    "@lat":26.9322525,
    "@lon":75.7918172
  },
  {
    "@id":7042869534,
    "name":"T.B. Cenetorium",
    "amenity":"hospital",
    "healthcare":"hospital",
    "addr:street":null,
    "addr:city":null,
    "addr:postcode":303103.0,
    "contact:phone":null,
    "contact:website":null,
    "@lat":26.9372802,
    "@lon":75.795701
  },
  {
    "@id":7042872239,
    "name":"Lifecare Hospital, Jaipur",
    "amenity":"hospital",
    "healthcare":"hospital",
    "addr:street":null,
    "addr:city":null,
    "addr:postcode":302018.0,
    "contact:phone":null,
    "contact:website":null,
    "@lat":26.8695507,
    "@lon":75.773275
  },
  {
    "@id":7042872255,
    "name":"Dr.M.R.Grewal Memorial Hospital",
    "amenity":"hospital",
    "healthcare":"hospital",
    "addr:street":null,
    "addr:city":null,
    "addr:postcode":302016.0,
    "contact:phone":null,
    "contact:website":null,
    "@lat":26.93543,
    "@lon":75.7980855
  },
  {
    "@id":7042947566,
    "name":"Tarani General Hospital",
    "amenity":"hospital",
    "healthcare":null,
    "addr:street":null,
    "addr:city":null,
    "addr:postcode":302020.0,
    "contact:phone":null,
    "contact:website":null,
    "@lat":26.8456402,
    "@lon":75.7701077
  },
  {
    "@id":7043371160,
    "name":"Railway Hospital",
    "amenity":"hospital",
    "healthcare":"hospital",
    "addr:street":null,
    "addr:city":null,
    "addr:postcode":null,
    "contact:phone":null,
    "contact:website":null,
    "@lat":26.9162526,
    "@lon":75.7866588
  },
  {
    "@id":7049461143,
    "name":"MAXX Hospital",
    "amenity":"hospital",
    "healthcare":"hospital",
    "addr:street":null,
    "addr:city":null,
    "addr:postcode":null,
    "contact:phone":null,
    "contact:website":null,
    "@lat":26.9450782,
    "@lon":75.7352074
  },
  {
    "@id":7279062535,
    "name":"TB Hospital",
    "amenity":"hospital",
    "healthcare":"hospital",
    "addr:street":null,
    "addr:city":null,
    "addr:postcode":302016.0,
    "contact:phone":null,
    "contact:website":null,
    "@lat":26.9379473,
    "@lon":75.7948581
  },
  {
    "@id":7279062612,
    "name":"Government Satellite Hospital, Banipark  , Jaipur",
    "amenity":"hospital",
    "healthcare":"hospital",
    "addr:street":null,
    "addr:city":null,
    "addr:postcode":302016.0,
    "contact:phone":null,
    "contact:website":null,
    "@lat":26.928678,
    "@lon":75.7972582
  },
  {
    "@id":7279084617,
    "name":"Government Hospital, Bagru",
    "amenity":"hospital",
    "healthcare":null,
    "addr:street":null,
    "addr:city":null,
    "addr:postcode":303007.0,
    "contact:phone":null,
    "contact:website":null,
    "@lat":26.8151992,
    "@lon":75.5428853
  },
  {
    "@id":7279102584,
    "name":"Government Homeopathic Centre",
    "amenity":"hospital",
    "healthcare":"hospital",
    "addr:street":null,
    "addr:city":null,
    "addr:postcode":302006.0,
    "contact:phone":null,
    "contact:website":null,
    "@lat":26.907893,
    "@lon":75.783374
  },
  {
    "@id":7279102587,
    "name":"Government Hospital",
    "amenity":"hospital",
    "healthcare":"hospital",
    "addr:street":null,
    "addr:city":null,
    "addr:postcode":302004.0,
    "contact:phone":null,
    "contact:website":null,
    "@lat":26.903108,
    "@lon":75.838214
  },
  {
    "@id":7694995574,
    "name":"Baby lom Hospital",
    "amenity":"hospital",
    "healthcare":null,
    "addr:street":null,
    "addr:city":null,
    "addr:postcode":303007.0,
    "contact:phone":null,
    "contact:website":null,
    "@lat":26.8111712,
    "@lon":75.5430211
  },
  {
    "@id":7694995581,
    "name":"Bagra Hospital",
    "amenity":"hospital",
    "healthcare":null,
    "addr:street":null,
    "addr:city":null,
    "addr:postcode":302006.0,
    "contact:phone":null,
    "contact:website":null,
    "@lat":26.7797811,
    "@lon":75.7628848
  },
  {
    "@id":7694995598,
    "name":"Advance Hospital",
    "amenity":"hospital",
    "healthcare":null,
    "addr:street":null,
    "addr:city":null,
    "addr:postcode":302029.0,
    "contact:phone":null,
    "contact:website":null,
    "@lat":26.8008059,
    "@lon":75.772354
  },
  {
    "@id":7694995599,
    "name":"Singodiya Hospital",
    "amenity":"hospital",
    "healthcare":null,
    "addr:street":null,
    "addr:city":null,
    "addr:postcode":302027.0,
    "contact:phone":null,
    "contact:website":null,
    "@lat":26.954477,
    "@lon":75.884311
  },
  {
    "@id":7694995606,
    "name":"Dirghayu Hospital",
    "amenity":"hospital",
    "healthcare":"hospital",
    "addr:street":null,
    "addr:city":null,
    "addr:postcode":302013.0,
    "contact:phone":null,
    "contact:website":null,
    "@lat":27.0218008,
    "@lon":75.7692008
  },
  {
    "@id":7694995614,
    "name":"Kanchan Hospital",
    "amenity":"hospital",
    "healthcare":null,
    "addr:street":null,
    "addr:city":null,
    "addr:postcode":302021.0,
    "contact:phone":null,
    "contact:website":null,
    "@lat":26.9091383,
    "@lon":75.8950179
  },
  {
    "@id":7694995617,
    "name":"Raj Girish Hospital",
    "amenity":"hospital",
    "healthcare":null,
    "addr:street":null,
    "addr:city":null,
    "addr:postcode":302012.0,
    "contact:phone":null,
    "contact:website":null,
    "@lat":26.9212585,
    "@lon":75.6561555
  },
  {
    "@id":7694995620,
    "name":"Bhanu Hospital",
    "amenity":"hospital",
    "healthcare":null,
    "addr:street":null,
    "addr:city":null,
    "addr:postcode":302022.0,
    "contact:phone":null,
    "contact:website":null,
    "@lat":26.7841241,
    "@lon":75.815859
  },
  {
    "@id":7694995624,
    "name":"D. H. Hospital",
    "amenity":"hospital",
    "healthcare":null,
    "addr:street":null,
    "addr:city":null,
    "addr:postcode":302031.0,
    "contact:phone":null,
    "contact:website":null,
    "@lat":26.8768382,
    "@lon":75.8949215
  },
  {
    "@id":7694995639,
    "name":"Lucky Hospital",
    "amenity":"hospital",
    "healthcare":null,
    "addr:street":null,
    "addr:city":null,
    "addr:postcode":302029.0,
    "contact:phone":null,
    "contact:website":null,
    "@lat":26.7979793,
    "@lon":75.726554
  },
  {
    "@id":7694995640,
    "name":"Dr. Kailash Chand Aloria",
    "amenity":"hospital",
    "healthcare":null,
    "addr:street":null,
    "addr:city":null,
    "addr:postcode":302031.0,
    "contact:phone":null,
    "contact:website":null,
    "@lat":26.8786673,
    "@lon":75.9036918
  },
  {
    "@id":7694995645,
    "name":"Janvi Hospital",
    "amenity":"hospital",
    "healthcare":null,
    "addr:street":null,
    "addr:city":null,
    "addr:postcode":303905.0,
    "contact:phone":null,
    "contact:website":null,
    "@lat":26.7691236,
    "@lon":75.7675099
  },
  {
    "@id":7694995649,
    "name":"Jaim Hospital",
    "amenity":"hospital",
    "healthcare":null,
    "addr:street":null,
    "addr:city":null,
    "addr:postcode":302029.0,
    "contact:phone":null,
    "contact:website":null,
    "@lat":26.7794303,
    "@lon":75.8017474
  },
  {
    "@id":7694995656,
    "name":"Bombay Hospital",
    "amenity":"hospital",
    "healthcare":null,
    "addr:street":null,
    "addr:city":null,
    "addr:postcode":303905.0,
    "contact:phone":null,
    "contact:website":null,
    "@lat":26.781935,
    "@lon":75.8633983
  },
  {
    "@id":7694995658,
    "name":"D R M Hospital",
    "amenity":"hospital",
    "healthcare":null,
    "addr:street":null,
    "addr:city":null,
    "addr:postcode":302031.0,
    "contact:phone":null,
    "contact:website":null,
    "@lat":26.8812624,
    "@lon":75.907127
  },
  {
    "@id":7694995663,
    "name":"Balaji Homoeopathic Clinic",
    "amenity":"hospital",
    "healthcare":null,
    "addr:street":null,
    "addr:city":null,
    "addr:postcode":303007.0,
    "contact:phone":null,
    "contact:website":null,
    "@lat":26.8166904,
    "@lon":75.5441492
  },
  {
    "@id":7694995672,
    "name":"Rukmani Devi Memorial Hospital",
    "amenity":"hospital",
    "healthcare":null,
    "addr:street":null,
    "addr:city":null,
    "addr:postcode":302029.0,
    "contact:phone":null,
    "contact:website":null,
    "@lat":26.7954924,
    "@lon":75.6348612
  },
  {
    "@id":7695122979,
    "name":"Swastik Hospital and Research Centre",
    "amenity":"hospital",
    "healthcare":null,
    "addr:street":null,
    "addr:city":null,
    "addr:postcode":302020.0,
    "contact:phone":null,
    "contact:website":null,
    "@lat":26.858647,
    "@lon":75.720417
  },
  {
    "@id":7695122983,
    "name":"Trilok Nursing Home",
    "amenity":"hospital",
    "healthcare":null,
    "addr:street":null,
    "addr:city":null,
    "addr:postcode":302017.0,
    "contact:phone":null,
    "contact:website":null,
    "@lat":26.8353154,
    "@lon":75.8243957
  },
  {
    "@id":7695122986,
    "name":"Om Sai Hospital",
    "amenity":"hospital",
    "healthcare":null,
    "addr:street":null,
    "addr:city":null,
    "addr:postcode":302033.0,
    "contact:phone":null,
    "contact:website":null,
    "@lat":26.8051181,
    "@lon":75.8322375
  },
  {
    "@id":7695122988,
    "name":"Garg Child Hospital",
    "amenity":"hospital",
    "healthcare":null,
    "addr:street":null,
    "addr:city":null,
    "addr:postcode":302026.0,
    "contact:phone":null,
    "contact:website":null,
    "@lat":26.8714206,
    "@lon":75.6941725
  },
  {
    "@id":7695122992,
    "name":"Madhu Hospital",
    "amenity":"hospital",
    "healthcare":null,
    "addr:street":null,
    "addr:city":null,
    "addr:postcode":302029.0,
    "contact:phone":null,
    "contact:website":null,
    "@lat":26.8242631,
    "@lon":75.777936
  },
  {
    "@id":7695122995,
    "name":"Vishwanath Hospital",
    "amenity":"hospital",
    "healthcare":null,
    "addr:street":null,
    "addr:city":null,
    "addr:postcode":302015.0,
    "contact:phone":null,
    "contact:website":null,
    "@lat":26.8049023,
    "@lon":75.811702
  },
  {
    "@id":7695122998,
    "name":"Ramanji Hospital",
    "amenity":"hospital",
    "healthcare":null,
    "addr:street":null,
    "addr:city":null,
    "addr:postcode":302017.0,
    "contact:phone":null,
    "contact:website":null,
    "@lat":26.8031836,
    "@lon":75.8555926
  },
  {
    "@id":7695123003,
    "name":"Jindal Hospital",
    "amenity":"hospital",
    "healthcare":null,
    "addr:street":null,
    "addr:city":null,
    "addr:postcode":302020.0,
    "contact:phone":null,
    "contact:website":null,
    "@lat":26.8219941,
    "@lon":75.7506913
  },
  {
    "@id":7695123004,
    "name":"Harmony National Homeopathy Hospital",
    "amenity":"hospital",
    "healthcare":null,
    "addr:street":null,
    "addr:city":null,
    "addr:postcode":302033.0,
    "contact:phone":null,
    "contact:website":null,
    "@lat":26.8060065,
    "@lon":75.8457503
  },
  {
    "@id":7695123005,
    "name":"Dr. Narang Hospital",
    "amenity":"hospital",
    "healthcare":null,
    "addr:street":null,
    "addr:city":null,
    "addr:postcode":302026.0,
    "contact:phone":null,
    "contact:website":null,
    "@lat":26.8738248,
    "@lon":75.6931921
  },
  {
    "@id":7695123007,
    "name":"Amrit Hospital",
    "amenity":"hospital",
    "healthcare":null,
    "addr:street":null,
    "addr:city":null,
    "addr:postcode":302029.0,
    "contact:phone":null,
    "contact:website":null,
    "@lat":26.8152312,
    "@lon":75.7814906
  },
  {
    "@id":7695123022,
    "name":"Shree Adinath Hospital",
    "amenity":"hospital",
    "healthcare":null,
    "addr:street":null,
    "addr:city":null,
    "addr:postcode":302029.0,
    "contact:phone":null,
    "contact:website":null,
    "@lat":26.8179341,
    "@lon":75.7482418
  },
  {
    "@id":7695123025,
    "name":"Siddhi Vinayak ENT Hospital",
    "amenity":"hospital",
    "healthcare":null,
    "addr:street":null,
    "addr:city":null,
    "addr:postcode":302033.0,
    "contact:phone":null,
    "contact:website":null,
    "@lat":26.8049589,
    "@lon":75.8062208
  },
  {
    "@id":7695123026,
    "name":"Ansh Hospital",
    "amenity":"hospital",
    "healthcare":null,
    "addr:street":null,
    "addr:city":null,
    "addr:postcode":302029.0,
    "contact:phone":null,
    "contact:website":null,
    "@lat":26.8210575,
    "@lon":75.7592474
  },
  {
    "@id":7695123029,
    "name":"Dr. Ramesh Memorial Hospital",
    "amenity":"hospital",
    "healthcare":null,
    "addr:street":null,
    "addr:city":null,
    "addr:postcode":302029.0,
    "contact:phone":null,
    "contact:website":null,
    "@lat":26.8410262,
    "@lon":75.7399393
  },
  {
    "@id":7695123037,
    "name":"Medilite Hospital",
    "amenity":"hospital",
    "healthcare":null,
    "addr:street":null,
    "addr:city":null,
    "addr:postcode":302029.0,
    "contact:phone":null,
    "contact:website":null,
    "@lat":26.8128864,
    "@lon":75.782805
  },
  {
    "@id":7695123039,
    "name":"Baheti Hospital",
    "amenity":"hospital",
    "healthcare":null,
    "addr:street":null,
    "addr:city":null,
    "addr:postcode":302017.0,
    "contact:phone":null,
    "contact:website":null,
    "@lat":26.855061,
    "@lon":75.822584
  },
  {
    "@id":7695123040,
    "name":"Jaipur Eye and Dental Hospital",
    "amenity":"hospital",
    "healthcare":null,
    "addr:street":null,
    "addr:city":null,
    "addr:postcode":302017.0,
    "contact:phone":null,
    "contact:website":null,
    "@lat":26.8248986,
    "@lon":75.8474328
  },
  {
    "@id":7695123046,
    "name":"Balaji ENT Hospital",
    "amenity":"hospital",
    "healthcare":null,
    "addr:street":null,
    "addr:city":null,
    "addr:postcode":302033.0,
    "contact:phone":null,
    "contact:website":null,
    "@lat":26.8017121,
    "@lon":75.8226299
  },
  {
    "@id":7695123048,
    "name":"Agarwal Hospital and Maternity Centre",
    "amenity":"hospital",
    "healthcare":null,
    "addr:street":null,
    "addr:city":null,
    "addr:postcode":302029.0,
    "contact:phone":null,
    "contact:website":null,
    "@lat":26.811738,
    "@lon":75.7798
  },
  {
    "@id":7695123049,
    "name":"Bhagwati Ayurveda & Panchkarma Research Centre",
    "amenity":"hospital",
    "healthcare":null,
    "addr:street":null,
    "addr:city":null,
    "addr:postcode":302019.0,
    "contact:phone":null,
    "contact:website":null,
    "@lat":26.8097423,
    "@lon":75.8672891
  },
  {
    "@id":7695123051,
    "name":"SG Hospital",
    "amenity":"hospital",
    "healthcare":null,
    "addr:street":null,
    "addr:city":null,
    "addr:postcode":303905.0,
    "contact:phone":null,
    "contact:website":null,
    "@lat":26.802886,
    "@lon":75.866088
  },
  {
    "@id":7695123054,
    "name":"Pardaya Memorial Trust Hospital",
    "amenity":"hospital",
    "healthcare":null,
    "addr:street":null,
    "addr:city":null,
    "addr:postcode":302029.0,
    "contact:phone":null,
    "contact:website":null,
    "@lat":26.8167712,
    "@lon":75.7822481
  },
  {
    "@id":7695123056,
    "name":"Siddharth Hospital",
    "amenity":"hospital",
    "healthcare":null,
    "addr:street":null,
    "addr:city":null,
    "addr:postcode":302026.0,
    "contact:phone":null,
    "contact:website":null,
    "@lat":26.873818,
    "@lon":75.69366
  },
  {
    "@id":7695123061,
    "name":"Mathur Mahila and General Hospital",
    "amenity":"hospital",
    "healthcare":null,
    "addr:street":null,
    "addr:city":null,
    "addr:postcode":302033.0,
    "contact:phone":null,
    "contact:website":null,
    "@lat":26.8026132,
    "@lon":75.8037184
  },
  {
    "@id":7695123063,
    "name":"Ashok Hospital & Research Centre",
    "amenity":"hospital",
    "healthcare":null,
    "addr:street":null,
    "addr:city":null,
    "addr:postcode":302026.0,
    "contact:phone":null,
    "contact:website":null,
    "@lat":26.8697503,
    "@lon":75.6934926
  },
  {
    "@id":7695123064,
    "name":"The Urmil Chest & General Hospital",
    "amenity":"hospital",
    "healthcare":null,
    "addr:street":null,
    "addr:city":null,
    "addr:postcode":302033.0,
    "contact:phone":null,
    "contact:website":null,
    "@lat":26.8050352,
    "@lon":75.8233611
  },
  {
    "@id":7698135281,
    "name":"Chandra Hospital",
    "amenity":"hospital",
    "healthcare":null,
    "addr:street":null,
    "addr:city":null,
    "addr:postcode":302018.0,
    "contact:phone":null,
    "contact:website":null,
    "@lat":26.8524159,
    "@lon":75.7948691
  },
  {
    "@id":7698135288,
    "name":"Utkarsh Hospital",
    "amenity":"hospital",
    "healthcare":null,
    "addr:street":null,
    "addr:city":null,
    "addr:postcode":302020.0,
    "contact:phone":null,
    "contact:website":null,
    "@lat":26.8773898,
    "@lon":75.7501535
  },
  {
    "@id":7698135292,
    "name":"M.B.M Children and General Hospital",
    "amenity":"hospital",
    "healthcare":null,
    "addr:street":null,
    "addr:city":null,
    "addr:postcode":302019.0,
    "contact:phone":null,
    "contact:website":null,
    "@lat":26.8911213,
    "@lon":75.7353006
  },
  {
    "@id":7698135297,
    "name":"Daksh Hospital",
    "amenity":"hospital",
    "healthcare":"hospital",
    "addr:street":null,
    "addr:city":null,
    "addr:postcode":302024.0,
    "contact:phone":null,
    "contact:website":null,
    "@lat":26.88331,
    "@lon":75.7159196
  },
  {
    "@id":7698135301,
    "name":"Jaipur Hospital",
    "amenity":"hospital",
    "healthcare":null,
    "addr:street":null,
    "addr:city":null,
    "addr:postcode":302018.0,
    "contact:phone":null,
    "contact:website":null,
    "@lat":26.857354,
    "@lon":75.795004
  },
  {
    "@id":7698135302,
    "name":"Kshitij Hospital",
    "amenity":"hospital",
    "healthcare":null,
    "addr:street":null,
    "addr:city":null,
    "addr:postcode":302019.0,
    "contact:phone":null,
    "contact:website":null,
    "@lat":26.8804078,
    "@lon":75.7453399
  },
  {
    "@id":7698135304,
    "name":"Prasoon Hospital",
    "amenity":"hospital",
    "healthcare":null,
    "addr:street":null,
    "addr:city":null,
    "addr:postcode":302018.0,
    "contact:phone":null,
    "contact:website":null,
    "@lat":26.8534487,
    "@lon":75.7898902
  },
  {
    "@id":7698135307,
    "name":"Jain Fertility & Mother Care",
    "amenity":"hospital",
    "healthcare":null,
    "addr:street":null,
    "addr:city":null,
    "addr:postcode":302019.0,
    "contact:phone":null,
    "contact:website":null,
    "@lat":26.8855662,
    "@lon":75.7451024
  },
  {
    "@id":7698135308,
    "name":"Chanda Devi Memorial Hospital",
    "amenity":"hospital",
    "healthcare":null,
    "addr:street":null,
    "addr:city":null,
    "addr:postcode":302019.0,
    "contact:phone":null,
    "contact:website":null,
    "@lat":26.8858605,
    "@lon":75.7658158
  },
  {
    "@id":7698135309,
    "name":"Vedanta Superspeciality Hospital",
    "amenity":"hospital",
    "healthcare":null,
    "addr:street":null,
    "addr:city":null,
    "addr:postcode":302021.0,
    "contact:phone":null,
    "contact:website":null,
    "@lat":26.8898811,
    "@lon":75.7380334
  },
  {
    "@id":7698135311,
    "name":"Jaipur Doorbeen Hospital",
    "amenity":"hospital",
    "healthcare":null,
    "addr:street":null,
    "addr:city":null,
    "addr:postcode":302019.0,
    "contact:phone":null,
    "contact:website":null,
    "@lat":26.8850757,
    "@lon":75.7670814
  },
  {
    "@id":7698135314,
    "name":"Royal Hospital",
    "amenity":"hospital",
    "healthcare":"hospital",
    "addr:street":null,
    "addr:city":null,
    "addr:postcode":302015.0,
    "contact:phone":null,
    "contact:website":null,
    "@lat":26.8672156,
    "@lon":75.7846212
  },
  {
    "@id":7698135319,
    "name":"Shubhayush Hospital",
    "amenity":"hospital",
    "healthcare":null,
    "addr:street":null,
    "addr:city":null,
    "addr:postcode":302033.0,
    "contact:phone":null,
    "contact:website":null,
    "@lat":26.8780554,
    "@lon":75.7414518
  },
  {
    "@id":7698135321,
    "name":"R N Multispeciality Hospital",
    "amenity":"hospital",
    "healthcare":null,
    "addr:street":null,
    "addr:city":null,
    "addr:postcode":302019.0,
    "contact:phone":null,
    "contact:website":null,
    "@lat":26.88477,
    "@lon":75.7523577
  },
  {
    "@id":7698135333,
    "name":"Gauri Multi Speciality Hospital",
    "amenity":"hospital",
    "healthcare":"hospital",
    "addr:street":null,
    "addr:city":null,
    "addr:postcode":302024.0,
    "contact:phone":null,
    "contact:website":null,
    "@lat":26.8824115,
    "@lon":75.7151396
  },
  {
    "@id":7698135334,
    "name":"Government Hospital",
    "amenity":"hospital",
    "healthcare":"hospital",
    "addr:street":null,
    "addr:city":null,
    "addr:postcode":302018.0,
    "contact:phone":null,
    "contact:website":null,
    "@lat":26.8699321,
    "@lon":75.7784824
  },
  {
    "@id":7698135335,
    "name":"Neelam Hospital",
    "amenity":"hospital",
    "healthcare":null,
    "addr:street":null,
    "addr:city":null,
    "addr:postcode":302021.0,
    "contact:phone":null,
    "contact:website":null,
    "@lat":26.903359,
    "@lon":75.7153746
  },
  {
    "@id":7698135336,
    "name":"Yadav Homeopathic Hospital",
    "amenity":"hospital",
    "healthcare":"hospital",
    "addr:street":null,
    "addr:city":null,
    "addr:postcode":302015.0,
    "contact:phone":null,
    "contact:website":null,
    "@lat":26.872107,
    "@lon":75.800163
  },
  {
    "@id":7698135340,
    "name":"Abhishek Hospital",
    "amenity":"hospital",
    "healthcare":null,
    "addr:street":null,
    "addr:city":null,
    "addr:postcode":302021.0,
    "contact:phone":null,
    "contact:website":null,
    "@lat":26.8765134,
    "@lon":75.7254235
  },
  {
    "@id":7698135342,
    "name":"Dwarka Hospital",
    "amenity":"hospital",
    "healthcare":null,
    "addr:street":null,
    "addr:city":null,
    "addr:postcode":302019.0,
    "contact:phone":null,
    "contact:website":null,
    "@lat":26.8942626,
    "@lon":75.7642069
  },
  {
    "@id":7698135348,
    "name":"Rohit Hospital",
    "amenity":"hospital",
    "healthcare":null,
    "addr:street":null,
    "addr:city":null,
    "addr:postcode":302021.0,
    "contact:phone":null,
    "contact:website":null,
    "@lat":26.8945267,
    "@lon":75.7474503
  },
  {
    "@id":7698135353,
    "name":"Purva Hospital",
    "amenity":"hospital",
    "healthcare":null,
    "addr:street":null,
    "addr:city":null,
    "addr:postcode":302021.0,
    "contact:phone":null,
    "contact:website":null,
    "@lat":26.8944136,
    "@lon":75.7454119
  },
  {
    "@id":7698135359,
    "name":"Kothari Hospital",
    "amenity":"hospital",
    "healthcare":null,
    "addr:street":null,
    "addr:city":null,
    "addr:postcode":302021.0,
    "contact:phone":null,
    "contact:website":null,
    "@lat":26.8988402,
    "@lon":75.7507882
  },
  {
    "@id":7698135363,
    "name":"Gouri Multi-speciality Hospital",
    "amenity":"hospital",
    "healthcare":null,
    "addr:street":null,
    "addr:city":null,
    "addr:postcode":302034.0,
    "contact:phone":null,
    "contact:website":null,
    "@lat":26.8895235,
    "@lon":75.7113925
  },
  {
    "@id":7698135371,
    "name":"Aanch Hospital",
    "amenity":"hospital",
    "healthcare":null,
    "addr:street":null,
    "addr:city":null,
    "addr:postcode":302018.0,
    "contact:phone":null,
    "contact:website":null,
    "@lat":26.8501473,
    "@lon":75.7962052
  },
  {
    "@id":7698135375,
    "name":"Jaipur Hospital",
    "amenity":"hospital",
    "healthcare":null,
    "addr:street":null,
    "addr:city":null,
    "addr:postcode":302018.0,
    "contact:phone":null,
    "contact:website":null,
    "@lat":26.8491264,
    "@lon":75.7933978
  },
  {
    "@id":7698135377,
    "name":"Sethi Hospital",
    "amenity":"hospital",
    "healthcare":null,
    "addr:street":null,
    "addr:city":null,
    "addr:postcode":302018.0,
    "contact:phone":null,
    "contact:website":null,
    "@lat":26.8548043,
    "@lon":75.7934423
  },
  {
    "@id":7698135384,
    "name":"Shishumangal Hospital",
    "amenity":"hospital",
    "healthcare":null,
    "addr:street":null,
    "addr:city":null,
    "addr:postcode":302021.0,
    "contact:phone":null,
    "contact:website":null,
    "@lat":26.897711,
    "@lon":75.742453
  },
  {
    "@id":7698409950,
    "name":"Yuvaan Child and General Hospital",
    "amenity":"hospital",
    "healthcare":null,
    "addr:street":null,
    "addr:city":null,
    "addr:postcode":302012.0,
    "contact:phone":null,
    "contact:website":null,
    "@lat":26.9472587,
    "@lon":75.7201811
  },
  {
    "@id":7698409957,
    "name":"Lal Kothi Hospital",
    "amenity":"hospital",
    "healthcare":"hospital",
    "addr:street":null,
    "addr:city":null,
    "addr:postcode":302015.0,
    "contact:phone":null,
    "contact:website":null,
    "@lat":26.8887859,
    "@lon":75.7983179
  },
  {
    "@id":7698409958,
    "name":"Anupam Eye Hospital",
    "amenity":"hospital",
    "healthcare":"hospital",
    "addr:street":null,
    "addr:city":null,
    "addr:postcode":302005.0,
    "contact:phone":null,
    "contact:website":null,
    "@lat":26.8909671,
    "@lon":75.8021812
  },
  {
    "@id":7698409959,
    "name":"Usha Hospital",
    "amenity":"hospital",
    "healthcare":"hospital",
    "addr:street":null,
    "addr:city":null,
    "addr:postcode":302021.0,
    "contact:phone":null,
    "contact:website":null,
    "@lat":26.921774,
    "@lon":75.745466
  },
  {
    "@id":7698409963,
    "name":"Param Brahm Anand Hospital",
    "amenity":"hospital",
    "healthcare":null,
    "addr:street":null,
    "addr:city":null,
    "addr:postcode":302012.0,
    "contact:phone":null,
    "contact:website":null,
    "@lat":26.954114,
    "@lon":75.708327
  },
  {
    "@id":7698409966,
    "name":"Jeevan Joyti Hospital",
    "amenity":"hospital",
    "healthcare":null,
    "addr:street":null,
    "addr:city":null,
    "addr:postcode":302021.0,
    "contact:phone":null,
    "contact:website":null,
    "@lat":26.905852,
    "@lon":75.7375382
  },
  {
    "@id":7698409969,
    "name":"BB Saxena Hospital",
    "amenity":"hospital",
    "healthcare":"hospital",
    "addr:street":null,
    "addr:city":null,
    "addr:postcode":302021.0,
    "contact:phone":null,
    "contact:website":null,
    "@lat":26.9139104,
    "@lon":75.7461785
  },
  {
    "@id":7698409977,
    "name":"Arpit Hospital",
    "amenity":"hospital",
    "healthcare":null,
    "addr:street":null,
    "addr:city":null,
    "addr:postcode":302034.0,
    "contact:phone":null,
    "contact:website":null,
    "@lat":26.9115351,
    "@lon":75.7223961
  },
  {
    "@id":7698409978,
    "name":"Shree K B M Hospital",
    "amenity":"hospital",
    "healthcare":null,
    "addr:street":null,
    "addr:city":null,
    "addr:postcode":302034.0,
    "contact:phone":null,
    "contact:website":null,
    "@lat":26.92142,
    "@lon":75.724666
  },
  {
    "@id":7698409979,
    "name":"Shri Ramniwas Memorial Hospital & Allergy Centre",
    "amenity":"hospital",
    "healthcare":"hospital",
    "addr:street":null,
    "addr:city":null,
    "addr:postcode":302032.0,
    "contact:phone":null,
    "contact:website":null,
    "@lat":26.9406476,
    "@lon":75.7470396
  },
  {
    "@id":7698409980,
    "name":"Metrocity Hospital",
    "amenity":"hospital",
    "healthcare":null,
    "addr:street":null,
    "addr:city":null,
    "addr:postcode":302015.0,
    "contact:phone":null,
    "contact:website":null,
    "@lat":26.8850429,
    "@lon":75.7851221
  },
  {
    "@id":7698409984,
    "name":"Kartarpura General Dental Hospital",
    "amenity":"hospital",
    "healthcare":null,
    "addr:street":null,
    "addr:city":null,
    "addr:postcode":302006.0,
    "contact:phone":null,
    "contact:website":null,
    "@lat":26.8850899,
    "@lon":75.78478
  },
  {
    "@id":7698409986,
    "name":"SMS Hospital",
    "amenity":"hospital",
    "healthcare":"hospital",
    "addr:street":null,
    "addr:city":null,
    "addr:postcode":302021.0,
    "contact:phone":null,
    "contact:website":null,
    "@lat":26.9184598,
    "@lon":75.7502987
  },
  {
    "@id":7698409990,
    "name":"Ayurvedic Hospital",
    "amenity":"hospital",
    "healthcare":"hospital",
    "addr:street":null,
    "addr:city":null,
    "addr:postcode":302006.0,
    "contact:phone":null,
    "contact:website":null,
    "@lat":26.9092879,
    "@lon":75.7706864
  },
  {
    "@id":7698409994,
    "name":"KKS Urology and General Hospital",
    "amenity":"hospital",
    "healthcare":"hospital",
    "addr:street":null,
    "addr:city":null,
    "addr:postcode":302015.0,
    "contact:phone":null,
    "contact:website":null,
    "@lat":26.8887114,
    "@lon":75.8080238
  },
  {
    "@id":7698410002,
    "name":"Rishab Hospital",
    "amenity":"hospital",
    "healthcare":null,
    "addr:street":null,
    "addr:city":null,
    "addr:postcode":302012.0,
    "contact:phone":null,
    "contact:website":null,
    "@lat":26.9537161,
    "@lon":75.7082011
  },
  {
    "@id":7698410011,
    "name":"Vyom Hospital",
    "amenity":"hospital",
    "healthcare":null,
    "addr:street":null,
    "addr:city":null,
    "addr:postcode":302006.0,
    "contact:phone":null,
    "contact:website":null,
    "@lat":26.8897766,
    "@lon":75.7850938
  },
  {
    "@id":7698410012,
    "name":"Janana Hospital",
    "amenity":"hospital",
    "healthcare":null,
    "addr:street":null,
    "addr:city":null,
    "addr:postcode":302012.0,
    "contact:phone":null,
    "contact:website":null,
    "@lat":26.9479719,
    "@lon":75.7125358
  },
  {
    "@id":7698410016,
    "name":"Janni Nursing Home",
    "amenity":"hospital",
    "healthcare":null,
    "addr:street":null,
    "addr:city":null,
    "addr:postcode":302012.0,
    "contact:phone":null,
    "contact:website":null,
    "@lat":26.9563938,
    "@lon":75.7095831
  },
  {
    "@id":7698410020,
    "name":"Sahara Child Hospital",
    "amenity":"hospital",
    "healthcare":"hospital",
    "addr:street":null,
    "addr:city":null,
    "addr:postcode":302012.0,
    "contact:phone":null,
    "contact:website":null,
    "@lat":26.9434119,
    "@lon":75.7543486
  },
  {
    "@id":7698410021,
    "name":"Shaurya Hospital",
    "amenity":"hospital",
    "healthcare":null,
    "addr:street":null,
    "addr:city":null,
    "addr:postcode":302006.0,
    "contact:phone":null,
    "contact:website":null,
    "@lat":26.8969029,
    "@lon":75.784416
  },
  {
    "@id":7698410023,
    "name":"Naveen Fracture and General Hospital",
    "amenity":"hospital",
    "healthcare":null,
    "addr:street":null,
    "addr:city":null,
    "addr:postcode":302021.0,
    "contact:phone":null,
    "contact:website":null,
    "@lat":26.904629,
    "@lon":75.7355438
  },
  {
    "@id":7698410031,
    "name":"Sethi Mother and Children Hospital",
    "amenity":"hospital",
    "healthcare":"hospital",
    "addr:street":null,
    "addr:city":null,
    "addr:postcode":302015.0,
    "contact:phone":null,
    "contact:website":null,
    "@lat":26.889688,
    "@lon":75.792066
  },
  {
    "@id":7698410038,
    "name":"Unique Hospital",
    "amenity":"hospital",
    "healthcare":"hospital",
    "addr:street":null,
    "addr:city":null,
    "addr:postcode":302021.0,
    "contact:phone":null,
    "contact:website":null,
    "@lat":26.9165013,
    "@lon":75.7470773
  },