{
  "police": [
    { "id": "p1", "name": "Ashok Nagar Police Station", "lat": 26.9115, "lng": 75.8190, "addr:city": "Jaipur" },
    { "id": "p2", "name": "Vaishali Nagar Police Station", "lat": 26.9110, "lng": 75.7445, "addr:city": "Jaipur" },
    { "id": "p3", "name": "Malviya Nagar Police Station", "lat": 26.8505, "lng": 75.8120, "addr:city": "Jaipur" },
    { "id": "p4", "name": "Mansarovar Police Station", "lat": 26.8500, "lng": 75.7680, "addr:city": "Jaipur" },
    { "id": "p5", "name": "Sanganer Police Station", "lat": 26.8200, "lng": 75.8000, "addr:city": "Jaipur" },
    { "id": "p6", "name": "Shyam Nagar Police Station", "lat": 26.8950, "lng": 75.7700, "addr:city": "Jaipur" },
    { "id": "p7", "name": "Civil Lines Police Station", "lat": 26.9100, "lng": 75.7800, "addr:city": "Jaipur" },
    { "id": "p8", "name": "Vidhyadhar Nagar Police Station", "lat": 26.9400, "lng": 75.7800, "addr:city": "Jaipur" },
    { "id": "p9", "name": "Jhotwara Police Station", "lat": 26.9405, "lng": 75.7400, "addr:city": "Jaipur" },
    { "id": "p10", "name": "Bani Park Police Station", "lat": 26.9300, "lng": 75.7900, "addr:city": "Jaipur" },
    { "id": "p11", "name": "Sindhi Camp Police Station", "lat": 26.9200, "lng": 75.8000, "addr:city": "Jaipur" },
    { "id": "p12", "name": "Adarsh Nagar Police Station", "lat": 26.8900, "lng": 75.8300, "addr:city": "Jaipur" },
    { "id": "p13", "name": "Transport Nagar Police Station", "lat": 26.9100, "lng": 75.8400, "addr:city": "Jaipur" },
    { "id": "p14", "name": "Ramganj Police Station", "lat": 26.9200, "lng": 75.8300, "addr:city": "Jaipur" },
    { "id": "p15", "name": "Amer Police Station", "lat": 26.9855, "lng": 75.8513, "addr:city": "Jaipur" },
    { "id": "p16", "name": "Jawahar Nagar Police Station", "lat": 26.8905, "lng": 75.8200, "addr:city": "Jaipur" },
    { "id": "p17", "name": "Brahmpuri Police Station", "lat": 26.9400, "lng": 75.8300, "addr:city": "Jaipur" },
    { "id": "p18", "name": "Sodala Police Station", "lat": 26.9000, "lng": 75.7700, "addr:city": "Jaipur" },
    { "id": "p19", "name": "Chomu Police Station", "lat": 27.1700, "lng": 75.7200, "addr:city": "Jaipur" },
    { "id": "p20", "name": "Kalwar Police Station", "lat": 26.9700, "lng": 75.6900, "addr:city": "Jaipur" }
  ]
}